# 
# Header Description:
# 
# Version: v3.0.6.1 Platform: 11 Manufacturer: Realme Model: RMX1851
# 
# Raw,utcTimeMillis,TimeNanos,LeapSecond,TimeUncertaintyNanos,FullBiasNanos,BiasNanos,BiasUncertaintyNanos,DriftNanosPerSecond,DriftUncertaintyNanosPerSecond,HardwareClockDiscontinuityCount,Svid,TimeOffsetNanos,State,ReceivedSvTimeNanos,ReceivedSvTimeUncertaintyNanos,Cn0DbHz,PseudorangeRateMetersPerSecond,PseudorangeRateUncertaintyMetersPerSecond,AccumulatedDeltaRangeState,AccumulatedDeltaRangeMeters,AccumulatedDeltaRangeUncertaintyMeters,CarrierFrequencyHz,CarrierCycles,CarrierPhase,CarrierPhaseUncertainty,MultipathIndicator,SnrInDb,ConstellationType,AgcDb,BasebandCn0DbHz,FullInterSignalBiasNanos,FullInterSignalBiasUncertaintyNanos,SatelliteInterSignalBiasNanos,SatelliteInterSignalBiasUncertaintyNanos,CodeType,ChipsetElapsedRealtimeNanos
# 
# UncalAccel,utcTimeMillis,elapsedRealtimeNanos,UncalAccelXMps2,UncalAccelYMps2,UncalAccelZMps2,BiasXMps2,BiasYMps2,BiasZMps2
# 
# Accel,utcTimeMillis,elapsedRealtimeNanos,AccelXMps2,AccelYMps2,AccelZMps2
# 
# UncalGyro,utcTimeMillis,elapsedRealtimeNanos,UncalGyroXRadPerSec,UncalGyroYRadPerSec,UncalGyroZRadPerSec,DriftXRadPerSec,DriftYRadPerSec,DriftZRadPerSec
# 
# Gyro,utcTimeMillis,elapsedRealtimeNanos,GyroXRadPerSec,GyroYRadPerSec,GyroZRadPerSec
# 
# UncalMag,utcTimeMillis,elapsedRealtimeNanos,UncalMagXMicroT,UncalMagYMicroT,UncalMagZMicroT,BiasXMicroT,BiasYMicroT,BiasZMicroT
# 
# Mag,utcTimeMillis,elapsedRealtimeNanos,MagXMicroT,MagYMicroT,MagZMicroT
# 
# OrientationDeg,utcTimeMillis,elapsedRealtimeNanos,yawDeg,rollDeg,pitchDeg
# 
# Fix,Provider,LatitudeDegrees,LongitudeDegrees,AltitudeMeters,SpeedMps,AccuracyMeters,BearingDegrees,UnixTimeMillis,SpeedAccuracyMps,BearingAccuracyDegrees,elapsedRealtimeNanos,VerticalAccuracyMeters
# 
# Nav,Svid,Type,Status,MessageId,Sub-messageId,Data(Bytes)
# 
# Status,UnixTimeMillis,SignalCount,SignalIndex,ConstellationType,Svid,CarrierFrequencyHz,Cn0DbHz,AzimuthDegrees,ElevationDegrees,UsedInFix,HasAlmanacData,HasEphemerisData,BasebandCn0DbHz
# 
Status,,34,0,1,5,1575420030,18.70,184.0,62.0,1,1,0,18.7
Status,,34,1,1,11,1575420030,15.20,1.0,43.0,1,1,0,15.2
Status,,34,2,1,12,1575420030,23.50,324.0,53.0,1,1,0,23.5
Status,,34,3,1,20,1575420030,10.50,73.0,79.0,0,1,0,10.5
Status,,34,4,1,24,1575420030,16.10,232.0,23.0,1,1,0,16.1
Status,,34,5,1,6,1575420030,0.00,35.0,13.0,0,1,0,0.0
Status,,34,6,1,13,1575420030,0.00,165.0,10.0,0,1,0,0.0
Status,,34,7,1,19,1575420030,0.00,74.0,21.0,0,1,0,0.0
Status,,34,8,1,25,1575420030,0.00,322.0,20.0,0,1,0,0.0
Status,,34,9,3,9,1602000000,20.20,312.0,30.0,1,1,0,20.2
Status,,34,10,3,16,1602000000,20.50,232.0,59.0,1,1,0,20.5
Status,,34,11,3,15,1602000000,12.00,172.0,22.0,0,1,0,12.0
Status,,34,12,3,18,1602000000,0.00,26.0,15.0,0,1,0,0.0
Status,,34,13,3,19,1602000000,0.00,340.0,26.0,0,1,0,0.0
Status,,34,14,3,3,1602000000,0.00,66.0,22.0,0,1,0,0.0
Status,,34,15,3,4,1602000000,0.00,122.0,33.0,0,1,0,0.0
Status,,34,16,5,8,1561097980,16.80,12.0,58.0,0,1,0,16.8
Status,,34,17,5,13,1561097980,16.60,0.0,0.0,1,1,0,16.6
Status,,34,18,5,19,1561097980,14.80,170.0,33.0,0,1,0,14.8
Status,,34,19,5,1,1561097980,0.00,94.0,16.0,0,1,0,0.0
Status,,34,20,5,2,1561097980,0.00,163.0,73.0,0,1,0,0.0
Status,,34,21,5,3,1561097980,0.00,109.0,52.0,0,1,0,0.0
Status,,34,22,5,5,1561097980,0.00,239.0,60.0,0,1,0,0.0
Status,,34,23,5,7,1561097980,0.00,99.0,53.0,0,1,0,0.0
Status,,34,24,5,10,1561097980,0.00,78.0,64.0,0,1,0,0.0
Status,,34,25,5,20,1561097980,0.00,102.0,45.0,0,1,0,0.0
Status,,34,26,5,29,1561097980,0.00,345.0,36.0,0,1,0,0.0
Status,,34,27,5,30,1561097980,0.00,49.0,23.0,0,1,0,0.0
Status,,34,28,6,21,1575420030,12.50,309.0,67.0,1,1,0,12.5
Status,,34,29,6,26,1575420030,15.90,293.0,41.0,1,1,0,15.9
Status,,34,30,6,1,1575420030,0.00,322.0,18.0,0,1,0,0.0
Status,,34,31,6,7,1575420030,0.00,146.0,20.0,0,1,0,0.0
Status,,34,32,6,13,1575420030,0.00,8.0,36.0,0,1,0,0.0
Status,,34,33,6,27,1575420030,0.00,153.0,53.0,0,1,0,0.0
Fix,GPS,12.9859922300,80.2373228900,-57.756927490234375,0.0,14.474633,,1682241286000,0.33105892,,47149376769222,6.0
Raw,1682241285433,47174400000000,18,,-1366229329033206568,-0.3454275131225586,103.5990280797705,15.698842805424409,16.62766638423991,9,16,0.0,49359,44085367160221,46,20.5,318.337158203125,1.1269999742507935,16,0.0,0.0,1601437440,,,,0,,3,3.26,17.5,,,,,,47148806311714
Raw,1682241285433,47174400000000,18,,-1366229329033206568,-0.3454275131225586,103.5990280797705,15.698842805424409,16.62766638423991,9,12,0.0,81935,33303362887501,31,23.5,-359.7691955566406,0.6694999933242798,16,0.0,0.0,1575420030,,,,0,,1,4.46,20.0,,,,,,47148806311714
Status,1682241286000,34,0,1,5,1575420030,18.70,184.0,62.0,1,1,0,18.7
Status,1682241286000,34,1,1,11,1575420030,15.20,1.0,43.0,1,1,0,15.2
Status,1682241286000,34,2,1,12,1575420030,23.80,324.0,53.0,1,1,0,23.8
Status,1682241286000,34,3,1,20,1575420030,10.50,73.0,79.0,0,1,0,10.5
Status,1682241286000,34,4,1,24,1575420030,16.10,232.0,23.0,1,1,0,16.1
Status,1682241286000,34,5,1,6,1575420030,0.00,35.0,13.0,0,1,0,0.0
Status,1682241286000,34,6,1,13,1575420030,0.00,165.0,10.0,0,1,0,0.0
Status,1682241286000,34,7,1,19,1575420030,0.00,74.0,21.0,0,1,0,0.0
Status,1682241286000,34,8,1,25,1575420030,0.00,322.0,20.0,0,1,0,0.0
Status,1682241286000,34,9,3,9,1602000000,20.20,312.0,30.0,1,1,0,20.2
Status,1682241286000,34,10,3,16,1602000000,21.20,232.0,59.0,1,1,0,21.2
Status,1682241286000,34,11,3,15,1602000000,12.00,172.0,22.0,0,1,0,12.0
Status,1682241286000,34,12,3,18,1602000000,0.00,26.0,15.0,0,1,0,0.0
Status,1682241286000,34,13,3,19,1602000000,0.00,340.0,26.0,0,1,0,0.0
Status,1682241286000,34,14,3,3,1602000000,0.00,66.0,22.0,0,1,0,0.0
Status,1682241286000,34,15,3,4,1602000000,0.00,122.0,33.0,0,1,0,0.0
Status,1682241286000,34,16,5,8,1561097980,16.80,12.0,58.0,0,1,0,16.8
Status,1682241286000,34,17,5,13,1561097980,16.60,0.0,0.0,1,1,0,16.6
Status,1682241286000,34,18,5,19,1561097980,14.80,170.0,33.0,0,1,0,14.8
Status,1682241286000,34,19,5,1,1561097980,0.00,94.0,16.0,0,1,0,0.0
Status,1682241286000,34,20,5,2,1561097980,0.00,163.0,73.0,0,1,0,0.0
Status,1682241286000,34,21,5,3,1561097980,0.00,109.0,52.0,0,1,0,0.0
Status,1682241286000,34,22,5,5,1561097980,0.00,239.0,60.0,0,1,0,0.0
Status,1682241286000,34,23,5,7,1561097980,0.00,99.0,53.0,0,1,0,0.0
Status,1682241286000,34,24,5,10,1561097980,0.00,78.0,64.0,0,1,0,0.0
Status,1682241286000,34,25,5,20,1561097980,0.00,102.0,45.0,0,1,0,0.0
Status,1682241286000,34,26,5,29,1561097980,0.00,345.0,36.0,0,1,0,0.0
Status,1682241286000,34,27,5,30,1561097980,0.00,49.0,23.0,0,1,0,0.0
Status,1682241286000,34,28,6,21,1575420030,12.50,309.0,67.0,1,1,0,12.5
Status,1682241286000,34,29,6,26,1575420030,15.90,293.0,41.0,1,1,0,15.9
Status,1682241286000,34,30,6,1,1575420030,0.00,322.0,18.0,0,1,0,0.0
Status,1682241286000,34,31,6,7,1575420030,0.00,146.0,20.0,0,1,0,0.0
Status,1682241286000,34,32,6,13,1575420030,0.00,8.0,36.0,0,1,0,0.0
Status,1682241286000,34,33,6,27,1575420030,0.00,153.0,53.0,0,1,0,0.0
Fix,GPS,12.9859923400,80.2373229500,-57.77301025390625,0.0,14.95703,,1682241287000,0.34014702,,47150376769222,6.0
Raw,1682241286433,47175400000000,18,,-1366229329033206559,-0.702754020690918,110.41738616768271,10.634703992667111,19.194985329453882,9,16,0.0,49359,44086367159160,40,21.2,318.5711669921875,1.056999921798706,16,0.0,0.0,1601437440,,,,0,,3,6.24,18.2,,,,,,47149806311705
Raw,1682241286433,47175400000000,18,,-1366229329033206559,-0.702754020690918,110.41738616768271,10.634703992667111,19.194985329453882,9,12,0.0,81935,33304362888667,31,23.8,-359.988037109375,0.6694999933242798,16,0.0,0.0,1575420030,,,,0,,1,8.07,20.3,,,,,,47149806311705
Status,1682241287000,33,0,1,5,1575420030,18.70,184.0,62.0,1,1,0,18.7
Status,1682241287000,33,1,1,11,1575420030,15.20,1.0,43.0,1,1,0,15.2
Status,1682241287000,33,2,1,12,1575420030,25.10,324.0,53.0,1,1,0,25.1
Status,1682241287000,33,3,1,20,1575420030,10.50,73.0,79.0,0,1,0,10.5
Status,1682241287000,33,4,1,24,1575420030,16.10,232.0,23.0,1,1,0,16.1
Status,1682241287000,33,5,1,6,1575420030,0.00,35.0,13.0,0,1,0,0.0
Status,1682241287000,33,6,1,13,1575420030,0.00,165.0,10.0,0,1,0,0.0
Status,1682241287000,33,7,1,19,1575420030,0.00,74.0,21.0,0,1,0,0.0
Status,1682241287000,33,8,1,25,1575420030,0.00,322.0,20.0,0,1,0,0.0
Status,1682241287000,33,9,3,9,1602000000,20.20,312.0,30.0,1,1,0,20.2
Status,1682241287000,33,10,3,16,1602000000,21.90,232.0,59.0,1,1,0,21.9
Status,1682241287000,33,11,3,18,1602000000,0.00,26.0,15.0,0,1,0,0.0
Status,1682241287000,33,12,3,19,1602000000,0.00,340.0,26.0,0,1,0,0.0
Status,1682241287000,33,13,3,3,1602000000,0.00,66.0,22.0,0,1,0,0.0
Status,1682241287000,33,14,3,4,1602000000,0.00,122.0,33.0,0,1,0,0.0
Status,1682241287000,33,15,5,8,1561097980,16.80,12.0,58.0,0,1,0,16.8
Status,1682241287000,33,16,5,13,1561097980,16.50,0.0,0.0,1,1,0,16.5
Status,1682241287000,33,17,5,19,1561097980,14.80,170.0,33.0,0,1,0,14.8
Status,1682241287000,33,18,5,1,1561097980,0.00,94.0,16.0,0,1,0,0.0
Status,1682241287000,33,19,5,2,1561097980,0.00,163.0,73.0,0,1,0,0.0
Status,1682241287000,33,20,5,3,1561097980,0.00,109.0,52.0,0,1,0,0.0
Status,1682241287000,33,21,5,5,1561097980,0.00,239.0,60.0,0,1,0,0.0
Status,1682241287000,33,22,5,7,1561097980,0.00,99.0,53.0,0,1,0,0.0
Status,1682241287000,33,23,5,10,1561097980,0.00,78.0,64.0,0,1,0,0.0
Status,1682241287000,33,24,5,20,1561097980,0.00,102.0,45.0,0,1,0,0.0
Status,1682241287000,33,25,5,29,1561097980,0.00,345.0,36.0,0,1,0,0.0
Status,1682241287000,33,26,5,30,1561097980,0.00,49.0,23.0,0,1,0,0.0
Status,1682241287000,33,27,6,21,1575420030,15.00,309.0,67.0,1,1,0,15.0
Status,1682241287000,33,28,6,26,1575420030,15.90,293.0,41.0,0,1,0,15.9
Status,1682241287000,33,29,6,1,1575420030,0.00,322.0,18.0,0,1,0,0.0
Status,1682241287000,33,30,6,7,1575420030,0.00,146.0,20.0,0,1,0,0.0
Status,1682241287000,33,31,6,13,1575420030,0.00,8.0,36.0,0,1,0,0.0
Status,1682241287000,33,32,6,27,1575420030,0.00,153.0,53.0,0,1,0,0.0
Fix,GPS,12.9859923100,80.2373229700,-57.773590087890625,0.0,15.269426,,1682241288000,0.34928498,,47151376769222,6.0
Raw,1682241287433,47176400000000,18,,-1366229329033206546,-0.9324588775634766,114.03801181586459,9.665915269513022,18.3750751790341,9,16,0.0,49359,44087367158204,40,21.9,320.1530456542969,1.056999921798706,16,0.0,0.0,1601437440,,,,0,,3,6.87,18.9,,,,,,47150806311692
Raw,1682241287433,47176400000000,18,,-1366229329033206546,-0.9324588775634766,114.03801181586459,9.665915269513022,18.3750751790341,9,12,0.0,81935,33305362889860,24,25.1,-357.89202880859375,0.384799987077713,16,0.0,0.0,1575420030,,,,0,,1,8.41,21.6,,,,,,47150806311692
Raw,1682241287433,47176400000000,18,,-1366229329033206546,-0.9324588775634766,114.03801181586459,9.665915269513022,18.3750751790341,9,13,0.0,16399,33291312380232,89,16.5,129.63626098632812,2.514500141143799,16,0.0,0.0,1561097980,,,,0,,5,7.81,10.5,,,,,,47150806311692
Raw,1682241287433,47176400000000,18,,-1366229329033206546,-0.9324588775634766,114.03801181586459,9.665915269513022,18.3750751790341,9,21,0.0,89103,33305353940924,110,15.0,-154.68972778320312,3.3519999980926514,16,0.0,0.0,1575420030,,,,0,,6,8.41,9.0,,,,,,47150806311692
Status,1682241288000,34,0,1,5,1575420030,18.70,184.0,62.0,0,1,0,18.7
Status,1682241288000,34,1,1,11,1575420030,15.20,1.0,43.0,1,1,0,15.2
Status,1682241288000,34,2,1,12,1575420030,22.80,324.0,53.0,1,1,0,22.8
Status,1682241288000,34,3,1,20,1575420030,10.50,73.0,79.0,0,1,0,10.5
Status,1682241288000,34,4,1,24,1575420030,16.10,232.0,23.0,1,1,0,16.1
Status,1682241288000,34,5,1,6,1575420030,0.00,35.0,13.0,0,1,0,0.0
Status,1682241288000,34,6,1,13,1575420030,0.00,165.0,10.0,0,1,0,0.0
Status,1682241288000,34,7,1,19,1575420030,0.00,74.0,21.0,0,1,0,0.0
Status,1682241288000,34,8,1,25,1575420030,0.00,322.0,20.0,0,1,0,0.0
Status,1682241288000,34,9,3,9,1602000000,20.20,312.0,30.0,0,1,0,20.2
Status,1682241288000,34,10,3,16,1602000000,21.90,232.0,59.0,1,1,0,21.9
Status,1682241288000,34,11,3,18,1602000000,0.00,26.0,15.0,0,1,0,0.0
Status,1682241288000,34,12,3,15,1602000000,0.00,172.0,22.0,0,1,0,0.0
Status,1682241288000,34,13,3,19,1602000000,0.00,340.0,26.0,0,1,0,0.0
Status,1682241288000,34,14,3,3,1602000000,0.00,66.0,22.0,0,1,0,0.0
Status,1682241288000,34,15,3,4,1602000000,0.00,122.0,33.0,0,1,0,0.0
Status,1682241288000,34,16,5,8,1561097980,16.80,12.0,58.0,0,1,0,16.8
Status,1682241288000,34,17,5,13,1561097980,16.50,0.0,0.0,1,1,0,16.5
Status,1682241288000,34,18,5,19,1561097980,14.80,170.0,33.0,0,1,0,14.8
Status,1682241288000,34,19,5,1,1561097980,0.00,94.0,16.0,0,1,0,0.0
Status,1682241288000,34,20,5,2,1561097980,0.00,163.0,73.0,0,1,0,0.0
Status,1682241288000,34,21,5,3,1561097980,0.00,109.0,52.0,0,1,0,0.0
Status,1682241288000,34,22,5,5,1561097980,0.00,239.0,60.0,0,1,0,0.0
Status,1682241288000,34,23,5,7,1561097980,0.00,99.0,53.0,0,1,0,0.0
Status,1682241288000,34,24,5,10,1561097980,0.00,78.0,64.0,0,1,0,0.0
Status,1682241288000,34,25,5,20,1561097980,0.00,102.0,45.0,0,1,0,0.0
Status,1682241288000,34,26,5,29,1561097980,0.00,345.0,36.0,0,1,0,0.0
Status,1682241288000,34,27,5,30,1561097980,0.00,49.0,23.0,0,1,0,0.0
Status,1682241288000,34,28,6,21,1575420030,18.80,309.0,67.0,1,1,0,18.8
Status,1682241288000,34,29,6,26,1575420030,15.90,293.0,41.0,0,1,0,15.9
Status,1682241288000,34,30,6,1,1575420030,0.00,322.0,18.0,0,1,0,0.0
Status,1682241288000,34,31,6,7,1575420030,0.00,146.0,20.0,0,1,0,0.0
Status,1682241288000,34,32,6,13,1575420030,0.00,8.0,36.0,0,1,0,0.0
Status,1682241288000,34,33,6,27,1575420030,0.00,153.0,53.0,0,1,0,0.0
Fix,GPS,12.9859922900,80.2373229600,-57.777496337890625,0.0,16.164759,,1682241289000,0.37696153,,47152376769222,8.0
Raw,1682241288433,47177400000000,18,,-1366229329033206532,-0.3740243911743164,115.79319107113406,14.006759964530424,18.14024526200827,9,12,0.0,81935,33306362891068,35,22.8,-359.8929138183594,0.7294999957084656,16,0.0,0.0,1575420030,,,,0,,1,5.17,19.3,,,,,,47151806311678
Raw,1682241288433,47177400000000,18,,-1366229329033206532,-0.3740243911743164,115.79319107113406,14.006759964530424,18.14024526200827,9,21,0.0,89103,33306353941493,61,18.8,-155.2510986328125,0.871999979019165,16,0.0,0.0,1575420030,,,,0,,6,5.18,12.8,,,,,,47151806311678
Status,1682241289000,34,0,1,5,1575420030,15.50,184.0,62.0,0,1,0,15.5
Status,1682241289000,34,1,1,11,1575420030,15.20,1.0,43.0,1,1,0,15.2
Status,1682241289000,34,2,1,12,1575420030,23.70,324.0,53.0,1,1,0,23.7
Status,1682241289000,34,3,1,20,1575420030,10.50,73.0,79.0,0,1,0,10.5
Status,1682241289000,34,4,1,24,1575420030,16.10,232.0,23.0,1,1,0,16.1
Status,1682241289000,34,5,1,6,1575420030,0.00,35.0,13.0,0,1,0,0.0
Status,1682241289000,34,6,1,13,1575420030,0.00,165.0,10.0,0,1,0,0.0
Status,1682241289000,34,7,1,19,1575420030,0.00,74.0,21.0,0,1,0,0.0
Status,1682241289000,34,8,1,25,1575420030,0.00,322.0,20.0,0,1,0,0.0
Status,1682241289000,34,9,3,9,1602000000,12.20,312.0,30.0,0,1,0,12.2
Status,1682241289000,34,10,3,16,1602000000,21.90,232.0,59.0,1,1,0,21.9
Status,1682241289000,34,11,3,18,1602000000,0.00,26.0,15.0,0,1,0,0.0
Status,1682241289000,34,12,3,15,1602000000,0.00,172.0,22.0,0,1,0,0.0
Status,1682241289000,34,13,3,19,1602000000,0.00,340.0,26.0,0,1,0,0.0
Status,1682241289000,34,14,3,3,1602000000,0.00,66.0,22.0,0,1,0,0.0
Status,1682241289000,34,15,3,4,1602000000,0.00,122.0,33.0,0,1,0,0.0
Status,1682241289000,34,16,5,8,1561097980,16.80,12.0,58.0,0,1,0,16.8
Status,1682241289000,34,17,5,13,1561097980,17.40,0.0,0.0,1,1,0,17.4
Status,1682241289000,34,18,5,19,1561097980,14.80,170.0,33.0,0,1,0,14.8
Status,1682241289000,34,19,5,1,1561097980,0.00,94.0,16.0,0,1,0,0.0
Status,1682241289000,34,20,5,2,1561097980,0.00,163.0,73.0,0,1,0,0.0
Status,1682241289000,34,21,5,3,1561097980,0.00,109.0,52.0,0,1,0,0.0
Status,1682241289000,34,22,5,5,1561097980,0.00,239.0,60.0,0,1,0,0.0
Status,1682241289000,34,23,5,7,1561097980,0.00,99.0,53.0,0,1,0,0.0
Status,1682241289000,34,24,5,10,1561097980,0.00,78.0,64.0,0,1,0,0.0
Status,1682241289000,34,25,5,20,1561097980,0.00,102.0,45.0,0,1,0,0.0
Status,1682241289000,34,26,5,29,1561097980,0.00,345.0,36.0,0,1,0,0.0
Status,1682241289000,34,27,5,30,1561097980,0.00,49.0,23.0,0,1,0,0.0
Status,1682241289000,34,28,6,21,1575420030,20.10,309.0,67.0,1,1,0,20.1
Status,1682241289000,34,29,6,26,1575420030,15.90,293.0,41.0,0,1,0,15.9
Status,1682241289000,34,30,6,1,1575420030,0.00,322.0,18.0,0,1,0,0.0
Status,1682241289000,34,31,6,7,1575420030,0.00,146.0,20.0,0,1,0,0.0
Status,1682241289000,34,32,6,13,1575420030,0.00,8.0,36.0,0,1,0,0.0
Status,1682241289000,34,33,6,27,1575420030,0.00,153.0,53.0,0,1,0,0.0
Fix,GPS,12.9859922800,80.2373229500,-57.775909423828125,0.0,15.970657,,1682241290000,0.37696153,,47153376769222,6.0
Raw,1682241289433,47178400000000,18,,-1366229329033206524,-0.4317054748535156,125.67243538796902,10.206974436809945,19.873005021745513,9,9,0.0,49359,44089361511564,223,12.2,-418.33770751953125,7.178000450134277,16,0.0,0.0,1600875010,,,,0,,3,8.04,9.2,,,,,,47152806311670
Raw,1682241289433,47178400000000,18,,-1366229329033206524,-0.4317054748535156,125.67243538796902,10.206974436809945,19.873005021745513,9,5,0.0,81935,33307364255862,169,15.5,-354.98333740234375,6.512500286102295,16,0.0,0.0,1575420030,,,,0,,1,10.07,12.0,,,,,,47152806311670
Raw,1682241289433,47178400000000,18,,-1366229329033206524,-0.4317054748535156,125.67243538796902,10.206974436809945,19.873005021745513,9,12,0.0,81935,33307362892281,31,23.7,-359.674072265625,0.6694999933242798,16,0.0,0.0,1575420030,,,,0,,1,10.07,20.2,,,,,,47152806311670
Raw,1682241289433,47178400000000,18,,-1366229329033206524,-0.4317054748535156,125.67243538796902,10.206974436809945,19.873005021745513,9,13,0.0,16399,33293312379333,73,17.4,129.63626098632812,1.684499979019165,16,0.0,0.0,1561097980,,,,0,,5,9.76,11.399999999999999,,,,,,47152806311670
Raw,1682241289433,47178400000000,18,,-1366229329033206524,-0.4317054748535156,125.67243538796902,10.206974436809945,19.873005021745513,9,21,0.0,89103,33307353941935,46,20.1,-155.89808654785156,0.7519999742507935,16,0.0,0.0,1575420030,,,,0,,6,10.09,14.100000000000001,,,,,,47152806311670
Status,1682241290000,34,0,1,5,1575420030,21.90,184.0,62.0,1,1,0,21.9
Status,1682241290000,34,1,1,11,1575420030,13.40,1.0,43.0,1,1,0,13.4
Status,1682241290000,34,2,1,12,1575420030,24.50,324.0,53.0,1,1,0,24.5
Status,1682241290000,34,3,1,20,1575420030,12.60,73.0,79.0,0,1,0,12.6
Status,1682241290000,34,4,1,24,1575420030,16.10,232.0,23.0,1,1,0,16.1
Status,1682241290000,34,5,1,6,1575420030,0.00,35.0,13.0,0,1,0,0.0
Status,1682241290000,34,6,1,13,1575420030,0.00,165.0,10.0,0,1,0,0.0
Status,1682241290000,34,7,1,19,1575420030,0.00,74.0,21.0,0,1,0,0.0
Status,1682241290000,34,8,1,25,1575420030,0.00,322.0,20.0,0,1,0,0.0
Status,1682241290000,34,9,3,9,1602000000,12.20,312.0,30.0,1,1,0,12.2
Status,1682241290000,34,10,3,16,1602000000,21.90,232.0,59.0,1,1,0,21.9
Status,1682241290000,34,11,3,18,1602000000,0.00,26.0,15.0,0,1,0,0.0
Status,1682241290000,34,12,3,15,1602000000,0.00,172.0,22.0,0,1,0,0.0
Status,1682241290000,34,13,3,19,1602000000,0.00,340.0,26.0,0,1,0,0.0
Status,1682241290000,34,14,3,3,1602000000,0.00,66.0,22.0,0,1,0,0.0
Status,1682241290000,34,15,3,4,1602000000,0.00,122.0,33.0,0,1,0,0.0
Status,1682241290000,34,16,5,8,1561097980,16.80,12.0,58.0,0,1,0,16.8
Status,1682241290000,34,17,5,13,1561097980,17.40,0.0,0.0,1,1,0,17.4
Status,1682241290000,34,18,5,19,1561097980,14.80,170.0,33.0,0,1,0,14.8
Status,1682241290000,34,19,5,1,1561097980,0.00,94.0,16.0,0,1,0,0.0
Status,1682241290000,34,20,5,2,1561097980,0.00,163.0,73.0,0,1,0,0.0
Status,1682241290000,34,21,5,3,1561097980,0.00,109.0,52.0,0,1,0,0.0
Status,1682241290000,34,22,5,5,1561097980,0.00,239.0,60.0,0,1,0,0.0
Status,1682241290000,34,23,5,7,1561097980,0.00,99.0,53.0,0,1,0,0.0
Status,1682241290000,34,24,5,10,1561097980,0.00,78.0,64.0,0,1,0,0.0
Status,1682241290000,34,25,5,20,1561097980,0.00,102.0,45.0,0,1,0,0.0
Status,1682241290000,34,26,5,29,1561097980,0.00,345.0,36.0,0,1,0,0.0
Status,1682241290000,34,27,5,30,1561097980,0.00,49.0,23.0,0,1,0,0.0
Status,1682241290000,34,28,6,21,1575420030,20.40,309.0,67.0,1,1,0,20.4
Status,1682241290000,34,29,6,26,1575420030,15.90,293.0,41.0,0,1,0,15.9
Status,1682241290000,34,30,6,1,1575420030,0.00,322.0,18.0,0,1,0,0.0
Status,1682241290000,34,31,6,7,1575420030,0.00,146.0,20.0,0,1,0,0.0
Status,1682241290000,34,32,6,13,1575420030,0.00,8.0,36.0,0,1,0,0.0
Status,1682241290000,34,33,6,27,1575420030,0.00,153.0,53.0,0,1,0,0.0
Fix,GPS,12.9859922600,80.2373229300,-57.765380859375,0.0,15.460095,,1682241291000,0.3939543,,47154376769222,6.0
Raw,1682241290433,47179400000000,18,,-1366229329033206516,-0.7576074600219727,120.5204171128571,9.181640597391791,18.507756308934265,9,5,0.0,81935,33308364257098,40,21.9,-354.193603515625,0.7924999594688416,16,0.0,0.0,1575420030,,,,0,,1,7.47,18.4,,,,,,47153806311662
Raw,1682241290433,47179400000000,18,,-1366229329033206516,-0.7576074600219727,120.5204171128571,9.181640597391791,18.507756308934265,9,11,0.0,81935,33308360403684,166,13.4,351.6912536621094,5.346500396728516,16,0.0,0.0,1575420030,,,,0,,1,7.47,9.9,,,,,,47153806311662
Raw,1682241290433,47179400000000,18,,-1366229329033206516,-0.7576074600219727,120.5204171128571,9.181640597391791,18.507756308934265,9,12,0.0,81935,33308362893502,27,24.5,-358.06610107421875,0.6195000410079956,16,0.0,0.0,1575420030,,,,0,,1,7.47,21.0,,,,,,47153806311662
Raw,1682241290433,47179400000000,18,,-1366229329033206516,-0.7576074600219727,120.5204171128571,9.181640597391791,18.507756308934265,9,20,0.0,81935,33308365681443,184,12.6,63.46294021606445,5.354000091552734,16,0.0,0.0,1575420030,,,,0,,1,7.47,9.1,,,,,,47153806311662
Raw,1682241290433,47179400000000,18,,-1366229329033206516,-0.7576074600219727,120.5204171128571,9.181640597391791,18.507756308934265,9,21,0.0,89103,33308353942488,46,20.4,-154.5565185546875,0.7519999742507935,16,0.0,0.0,1575420030,,,,0,,6,7.49,14.399999999999999,,,,,,47153806311662
Status,1682241291000,34,0,1,5,1575420030,21.70,184.0,62.0,1,1,0,21.7
Status,1682241291000,34,1,1,11,1575420030,13.40,1.0,43.0,1,1,0,13.4
Status,1682241291000,34,2,1,12,1575420030,23.80,324.0,53.0,1,1,0,23.8
Status,1682241291000,34,3,1,20,1575420030,12.60,73.0,79.0,1,1,0,12.6
Status,1682241291000,34,4,1,24,1575420030,16.10,232.0,23.0,0,1,0,16.1
Status,1682241291000,34,5,1,6,1575420030,0.00,35.0,13.0,0,1,0,0.0
Status,1682241291000,34,6,1,13,1575420030,0.00,165.0,10.0,0,1,0,0.0
Status,1682241291000,34,7,1,19,1575420030,0.00,74.0,21.0,0,1,0,0.0
Status,1682241291000,34,8,1,25,1575420030,0.00,322.0,20.0,0,1,0,0.0
Status,1682241291000,34,9,3,9,1602000000,12.20,312.0,30.0,1,1,0,12.2
Status,1682241291000,34,10,3,16,1602000000,21.90,232.0,59.0,1,1,0,21.9
Status,1682241291000,34,11,3,18,1602000000,0.00,26.0,15.0,0,1,0,0.0
Status,1682241291000,34,12,3,15,1602000000,0.00,172.0,22.0,0,1,0,0.0
Status,1682241291000,34,13,3,19,1602000000,0.00,340.0,26.0,0,1,0,0.0
Status,1682241291000,34,14,3,3,1602000000,0.00,66.0,22.0,0,1,0,0.0
Status,1682241291000,34,15,3,4,1602000000,0.00,122.0,33.0,0,1,0,0.0
Status,1682241291000,34,16,5,8,1561097980,16.80,12.0,58.0,0,1,0,16.8
Status,1682241291000,34,17,5,13,1561097980,17.60,0.0,0.0,1,1,0,17.6
Status,1682241291000,34,18,5,19,1561097980,14.80,170.0,33.0,0,1,0,14.8
Status,1682241291000,34,19,5,1,1561097980,0.00,94.0,16.0,0,1,0,0.0
Status,1682241291000,34,20,5,2,1561097980,0.00,163.0,73.0,0,1,0,0.0
Status,1682241291000,34,21,5,3,1561097980,0.00,109.0,52.0,0,1,0,0.0
Status,1682241291000,34,22,5,5,1561097980,0.00,239.0,60.0,0,1,0,0.0
Status,1682241291000,34,23,5,7,1561097980,0.00,99.0,53.0,0,1,0,0.0
Status,1682241291000,34,24,5,10,1561097980,0.00,78.0,64.0,0,1,0,0.0
Status,1682241291000,34,25,5,20,1561097980,0.00,102.0,45.0,0,1,0,0.0
Status,1682241291000,34,26,5,29,1561097980,0.00,345.0,36.0,0,1,0,0.0
Status,1682241291000,34,27,5,30,1561097980,0.00,49.0,23.0,0,1,0,0.0
Status,1682241291000,34,28,6,21,1575420030,20.40,309.0,67.0,1,1,0,20.4
Status,1682241291000,34,29,6,26,1575420030,15.90,293.0,41.0,0,1,0,15.9
Status,1682241291000,34,30,6,1,1575420030,0.00,322.0,18.0,0,1,0,0.0
Status,1682241291000,34,31,6,7,1575420030,0.00,146.0,20.0,0,1,0,0.0
Status,1682241291000,34,32,6,13,1575420030,0.00,8.0,36.0,0,1,0,0.0
Status,1682241291000,34,33,6,27,1575420030,0.00,153.0,53.0,0,1,0,0.0
Fix,GPS,12.9859922400,80.2373229500,-57.75909423828125,0.0,15.2750635,,1682241292000,0.3939543,,47155376769222,6.0
Raw,1682241291433,47180400000000,18,,-1366229329033206516,-0.698002815246582,110.58725795010105,11.851695245468234,16.918067201029,9,5,0.0,81935,33309364258261,40,21.7,-354.2411804199219,0.7924999594688416,16,0.0,0.0,1575420030,,,,0,,1,6.91,18.2,,,,,,47154806311662
Raw,1682241291433,47180400000000,18,,-1366229329033206516,-0.698002815246582,110.58725795010105,11.851695245468234,16.918067201029,9,12,0.0,81935,33309362894657,31,23.8,-357.609375,0.6694999933242798,16,0.0,0.0,1575420030,,,,0,,1,6.91,20.3,,,,,,47154806311662
Raw,1682241291433,47180400000000,18,,-1366229329033206516,-0.698002815246582,110.58725795010105,11.851695245468234,16.918067201029,9,13,0.0,16399,33295312378535,73,17.6,131.54705810546875,1.684499979019165,16,0.0,0.0,1561097980,,,,0,,5,6.24,11.600000000000001,,,,,,47154806311662
Status,1682241292000,34,0,1,5,1575420030,23.90,184.0,62.0,1,1,0,23.9
Status,1682241292000,34,1,1,11,1575420030,16.30,1.0,43.0,1,1,0,16.3
Status,1682241292000,34,2,1,12,1575420030,23.10,324.0,53.0,1,1,0,23.1
Status,1682241292000,34,3,1,20,1575420030,12.60,73.0,79.0,1,1,0,12.6
Status,1682241292000,34,4,1,24,1575420030,12.10,232.0,23.0,0,1,0,12.1
Status,1682241292000,34,5,1,6,1575420030,0.00,35.0,13.0,0,1,0,0.0
Status,1682241292000,34,6,1,13,1575420030,0.00,165.0,10.0,0,1,0,0.0
Status,1682241292000,34,7,1,19,1575420030,0.00,74.0,21.0,0,1,0,0.0
Status,1682241292000,34,8,1,25,1575420030,0.00,322.0,20.0,0,1,0,0.0
Status,1682241292000,34,9,3,9,1602000000,12.20,312.0,30.0,1,1,0,12.2
Status,1682241292000,34,10,3,16,1602000000,21.90,232.0,59.0,1,1,0,21.9
Status,1682241292000,34,11,3,18,1602000000,0.00,26.0,15.0,0,1,0,0.0
Status,1682241292000,34,12,3,15,1602000000,0.00,172.0,22.0,0,1,0,0.0
Status,1682241292000,34,13,3,19,1602000000,0.00,340.0,26.0,0,1,0,0.0
Status,1682241292000,34,14,3,3,1602000000,0.00,66.0,22.0,0,1,0,0.0
Status,1682241292000,34,15,3,4,1602000000,0.00,122.0,33.0,0,1,0,0.0
Status,1682241292000,34,16,5,8,1561097980,16.80,12.0,58.0,0,1,0,16.8
Status,1682241292000,34,17,5,13,1561097980,17.60,0.0,0.0,1,1,0,17.6
Status,1682241292000,34,18,5,19,1561097980,14.80,170.0,33.0,0,1,0,14.8
Status,1682241292000,34,19,5,1,1561097980,0.00,94.0,16.0,0,1,0,0.0
Status,1682241292000,34,20,5,2,1561097980,0.00,163.0,73.0,0,1,0,0.0
Status,1682241292000,34,21,5,3,1561097980,0.00,109.0,52.0,0,1,0,0.0
Status,1682241292000,34,22,5,5,1561097980,0.00,239.0,60.0,0,1,0,0.0
Status,1682241292000,34,23,5,7,1561097980,0.00,99.0,53.0,0,1,0,0.0
Status,1682241292000,34,24,5,10,1561097980,0.00,78.0,64.0,0,1,0,0.0
Status,1682241292000,34,25,5,20,1561097980,0.00,102.0,45.0,0,1,0,0.0
Status,1682241292000,34,26,5,29,1561097980,0.00,345.0,36.0,0,1,0,0.0
Status,1682241292000,34,27,5,30,1561097980,0.00,49.0,23.0,0,1,0,0.0
Status,1682241292000,34,28,6,21,1575420030,17.70,309.0,67.0,1,1,0,17.7
Status,1682241292000,34,29,6,26,1575420030,12.10,293.0,41.0,0,1,0,12.1
Status,1682241292000,34,30,6,1,1575420030,0.00,322.0,18.0,0,1,0,0.0
Status,1682241292000,34,31,6,7,1575420030,0.00,146.0,20.0,0,1,0,0.0
Status,1682241292000,34,32,6,13,1575420030,0.00,8.0,36.0,0,1,0,0.0
Status,1682241292000,34,33,6,27,1575420030,0.00,153.0,53.0,0,1,0,0.0
Fix,GPS,12.9859922600,80.2373229300,-57.751251220703125,0.0,14.569608,,1682241293000,0.3757659,,47156376769222,6.0
Raw,1682241292433,47181400000000,18,,-1366229329033206509,-0.20271873474121094,106.16947110975161,12.281523542015698,16.81699681192382,9,5,0.0,81935,33310364259412,31,23.9,-353.43243408203125,0.67249995470047,16,0.0,0.0,1575420030,,,,0,,1,10.38,20.4,,,,,,47155806311655
Raw,1682241292433,47181400000000,18,,-1366229329033206509,-0.20271873474121094,106.16947110975161,12.281523542015698,16.81699681192382,9,11,0.0,81935,33310360401366,84,16.3,352.6522521972656,2.006500005722046,16,0.0,0.0,1575420030,,,,0,,1,10.38,12.8,,,,,,47155806311655
Raw,1682241292433,47181400000000,18,,-1366229329033206509,-0.20271873474121094,106.16947110975161,12.281523542015698,16.81699681192382,9,12,0.0,81935,33310362895848,31,23.1,-357.8186950683594,0.7294999957084656,16,0.0,0.0,1575420030,,,,0,,1,10.38,19.6,,,,,,47155806311655
Raw,1682241292433,47181400000000,18,,-1366229329033206509,-0.20271873474121094,106.16947110975161,12.281523542015698,16.81699681192382,9,24,0.0,81935,33310353899287,221,12.1,285.12652587890625,6.996000289916992,16,0.0,0.0,1575420030,,,,0,,1,10.38,8.6,,,,,,47155806311655
Raw,1682241292433,47181400000000,18,,-1366229329033206509,-0.20271873474121094,106.16947110975161,12.281523542015698,16.81699681192382,9,21,0.0,89103,33310353943470,73,17.7,-153.85243225097656,1.6920000314712524,16,0.0,0.0,1575420030,,,,0,,6,10.41,11.7,,,,,,47155806311655
Raw,1682241292433,47181400000000,18,,-1366229329033206509,-0.20271873474121094,106.16947110975161,12.281523542015698,16.81699681192382,9,26,0.0,89103,33310350052750,317,12.1,53.55815505981445,9.633500099182129,16,0.0,0.0,1575420030,,,,0,,6,10.41,6.1,,,,,,47155806311655
Status,1682241293000,34,0,1,5,1575420030,21.70,184.0,62.0,1,1,0,21.7
Status,1682241293000,34,1,1,11,1575420030,19.50,1.0,43.0,1,1,0,19.5
Status,1682241293000,34,2,1,12,1575420030,21.00,324.0,53.0,1,1,0,21.0
Status,1682241293000,34,3,1,20,1575420030,12.60,73.0,79.0,1,1,0,12.6
Status,1682241293000,34,4,1,24,1575420030,17.90,232.0,23.0,1,1,0,17.9
Status,1682241293000,34,5,1,6,1575420030,0.00,35.0,13.0,0,1,0,0.0
Status,1682241293000,34,6,1,13,1575420030,0.00,165.0,10.0,0,1,0,0.0
Status,1682241293000,34,7,1,19,1575420030,0.00,74.0,21.0,0,1,0,0.0
Status,1682241293000,34,8,1,25,1575420030,0.00,322.0,20.0,0,1,0,0.0
Status,1682241293000,34,9,3,9,1602000000,12.20,312.0,30.0,1,1,0,12.2
Status,1682241293000,34,10,3,16,1602000000,21.90,232.0,59.0,1,1,0,21.9
Status,1682241293000,34,11,3,18,1602000000,0.00,26.0,15.0,0,1,0,0.0
Status,1682241293000,34,12,3,15,1602000000,0.00,172.0,22.0,0,1,0,0.0
Status,1682241293000,34,13,3,19,1602000000,0.00,340.0,26.0,0,1,0,0.0
Status,1682241293000,34,14,3,3,1602000000,0.00,66.0,22.0,0,1,0,0.0
Status,1682241293000,34,15,3,4,1602000000,0.00,122.0,33.0,0,1,0,0.0
Status,1682241293000,34,16,5,8,1561097980,16.80,12.0,58.0,0,1,0,16.8
Status,1682241293000,34,17,5,13,1561097980,17.70,0.0,0.0,1,1,0,17.7
Status,1682241293000,34,18,5,19,1561097980,14.80,170.0,33.0,0,1,0,14.8
Status,1682241293000,34,19,5,1,1561097980,0.00,94.0,16.0,0,1,0,0.0
Status,1682241293000,34,20,5,2,1561097980,0.00,163.0,73.0,0,1,0,0.0
Status,1682241293000,34,21,5,3,1561097980,0.00,109.0,52.0,0,1,0,0.0
Status,1682241293000,34,22,5,5,1561097980,0.00,239.0,60.0,0,1,0,0.0
Status,1682241293000,34,23,5,7,1561097980,0.00,99.0,53.0,0,1,0,0.0
Status,1682241293000,34,24,5,10,1561097980,0.00,78.0,64.0,0,1,0,0.0
Status,1682241293000,34,25,5,20,1561097980,0.00,102.0,45.0,0,1,0,0.0
Status,1682241293000,34,26,5,29,1561097980,0.00,345.0,36.0,0,1,0,0.0
Status,1682241293000,34,27,5,30,1561097980,0.00,49.0,23.0,0,1,0,0.0
Status,1682241293000,34,28,6,21,1575420030,20.00,309.0,67.0,1,1,0,20.0
Status,1682241293000,34,29,6,26,1575420030,21.00,293.0,41.0,1,1,0,21.0
Status,1682241293000,34,30,6,1,1575420030,0.00,322.0,18.0,0,1,0,0.0
Status,1682241293000,34,31,6,7,1575420030,0.00,146.0,20.0,0,1,0,0.0
Status,1682241293000,34,32,6,13,1575420030,0.00,8.0,36.0,0,1,0,0.0
Status,1682241293000,34,33,6,27,1575420030,0.00,153.0,53.0,0,1,0,0.0
Fix,GPS,12.9859924400,80.2373229500,-57.753875732421875,0.0,13.729743,,1682241294000,0.25,,47157376769222,6.0
Raw,1682241293433,47182400000000,18,,-1366229329033206486,-0.7764711380004883,96.11043788027018,13.517994353160192,16.557260354186074,9,5,0.0,81935,33311364260549,40,21.7,-353.0233154296875,0.7924999594688416,16,0.0,0.0,1575420030,,,,0,,1,6.86,18.2,,,,,,47156806311632
Raw,1682241293433,47182400000000,18,,-1366229329033206486,-0.7764711380004883,96.11043788027018,13.517994353160192,16.557260354186074,9,11,0.0,81935,33311360400259,53,19.5,351.0347595214844,0.9164999723434448,16,0.0,0.0,1575420030,,,,0,,1,6.86,16.0,,,,,,47156806311632
Raw,1682241293433,47182400000000,18,,-1366229329033206486,-0.7764711380004883,96.11043788027018,13.517994353160192,16.557260354186074,9,12,0.0,81935,33311362897131,40,21.0,-357.7616271972656,0.8495000004768372,16,0.0,0.0,1575420030,,,,0,,1,6.86,17.5,,,,,,47156806311632
Raw,1682241293433,47182400000000,18,,-1366229329033206486,-0.7764711380004883,96.11043788027018,13.517994353160192,16.557260354186074,9,24,0.0,81935,33311353898168,70,17.9,285.545166015625,1.0959999561309814,16,0.0,0.0,1575420030,,,,0,,1,6.86,14.399999999999999,,,,,,47156806311632
Raw,1682241293433,47182400000000,18,,-1366229329033206486,-0.7764711380004883,96.11043788027018,13.517994353160192,16.557260354186074,9,13,0.0,16399,33297312377627,73,17.7,131.7294921875,1.684499979019165,16,0.0,0.0,1561097980,,,,0,,5,6.62,11.7,,,,,,47156806311632
Raw,1682241293433,47182400000000,18,,-1366229329033206486,-0.7764711380004883,96.11043788027018,13.517994353160192,16.557260354186074,9,21,0.0,89103,33311353943991,46,20.0,-153.65261840820312,0.7519999742507935,16,0.0,0.0,1575420030,,,,0,,6,6.88,14.0,,,,,,47156806311632
Raw,1682241293433,47182400000000,18,,-1366229329033206486,-0.7764711380004883,96.11043788027018,13.517994353160192,16.557260354186074,9,26,0.0,89103,33311350052574,40,21.0,54.471561431884766,0.6934999823570251,16,0.0,0.0,1575420030,,,,0,,6,6.88,15.0,,,,,,47156806311632
Status,1682241294000,34,0,1,5,1575420030,21.20,184.0,62.0,1,1,0,21.2
Status,1682241294000,34,1,1,11,1575420030,19.80,1.0,43.0,1,1,0,19.8
Status,1682241294000,34,2,1,12,1575420030,23.40,324.0,53.0,1,1,0,23.4
Status,1682241294000,34,3,1,20,1575420030,12.60,73.0,79.0,1,1,0,12.6
Status,1682241294000,34,4,1,24,1575420030,18.60,232.0,23.0,1,1,0,18.6
Status,1682241294000,34,5,1,6,1575420030,0.00,35.0,13.0,0,1,0,0.0
Status,1682241294000,34,6,1,13,1575420030,0.00,165.0,10.0,0,1,0,0.0
Status,1682241294000,34,7,1,19,1575420030,0.00,74.0,21.0,0,1,0,0.0
Status,1682241294000,34,8,1,25,1575420030,0.00,322.0,20.0,0,1,0,0.0
Status,1682241294000,34,9,3,9,1602000000,13.30,312.0,30.0,1,1,0,13.3
Status,1682241294000,34,10,3,16,1602000000,21.90,232.0,59.0,0,1,0,21.9
Status,1682241294000,34,11,3,18,1602000000,0.00,26.0,15.0,0,1,0,0.0
Status,1682241294000,34,12,3,15,1602000000,0.00,172.0,22.0,0,1,0,0.0
Status,1682241294000,34,13,3,19,1602000000,0.00,340.0,26.0,0,1,0,0.0
Status,1682241294000,34,14,3,3,1602000000,0.00,66.0,22.0,0,1,0,0.0
Status,1682241294000,34,15,3,4,1602000000,0.00,122.0,33.0,0,1,0,0.0
Status,1682241294000,34,16,5,8,1561097980,16.80,12.0,58.0,0,1,0,16.8
Status,1682241294000,34,17,5,13,1561097980,17.70,0.0,0.0,1,1,0,17.7
Status,1682241294000,34,18,5,19,1561097980,14.80,170.0,33.0,0,1,0,14.8
Status,1682241294000,34,19,5,1,1561097980,0.00,94.0,16.0,0,1,0,0.0
Status,1682241294000,34,20,5,2,1561097980,0.00,163.0,73.0,0,1,0,0.0
Status,1682241294000,34,21,5,3,1561097980,0.00,109.0,52.0,0,1,0,0.0
Status,1682241294000,34,22,5,5,1561097980,0.00,239.0,60.0,0,1,0,0.0
Status,1682241294000,34,23,5,7,1561097980,0.00,99.0,53.0,0,1,0,0.0
Status,1682241294000,34,24,5,10,1561097980,0.00,78.0,64.0,0,1,0,0.0
Status,1682241294000,34,25,5,20,1561097980,0.00,102.0,45.0,0,1,0,0.0
Status,1682241294000,34,26,5,29,1561097980,0.00,345.0,36.0,0,1,0,0.0
Status,1682241294000,34,27,5,30,1561097980,0.00,49.0,23.0,0,1,0,0.0
Status,1682241294000,34,28,6,21,1575420030,20.80,309.0,67.0,1,1,0,20.8
Status,1682241294000,34,29,6,26,1575420030,20.20,293.0,41.0,1,1,0,20.2
Status,1682241294000,34,30,6,1,1575420030,0.00,322.0,18.0,0,1,0,0.0
Status,1682241294000,34,31,6,7,1575420030,0.00,146.0,20.0,0,1,0,0.0
Status,1682241294000,34,32,6,13,1575420030,0.00,8.0,36.0,0,1,0,0.0
Status,1682241294000,34,33,6,27,1575420030,0.00,153.0,53.0,0,1,0,0.0
Fix,GPS,12.9859924300,80.2373229800,-57.7891845703125,0.0,13.729822,,1682241295000,0.2780288,,47158376769222,6.0
Raw,1682241294433,47183400000000,18,,-1366229329033206473,-0.30582141876220703,92.42930536856875,13.085788968350773,14.92099335891841,9,9,0.0,49359,44094361518727,154,13.3,-414.7047119140625,4.798000335693359,16,0.0,0.0,1600875010,,,,0,,3,6.41,10.3,,,,,,47157806311619
Raw,1682241294433,47183400000000,18,,-1366229329033206473,-0.30582141876220703,92.42930536856875,13.085788968350773,14.92099335891841,9,5,0.0,81935,33312364261810,40,21.2,-352.861572265625,0.8524999618530273,16,0.0,0.0,1575420030,,,,0,,1,7.64,17.7,,,,,,47157806311619
Raw,1682241294433,47183400000000,18,,-1366229329033206473,-0.30582141876220703,92.42930536856875,13.085788968350773,14.92099335891841,9,11,0.0,81935,33312360399181,53,19.8,351.0727844238281,0.9164999723434448,16,0.0,0.0,1575420030,,,,0,,1,7.64,16.3,,,,,,47157806311619
Raw,1682241294433,47183400000000,18,,-1366229329033206473,-0.30582141876220703,92.42930536856875,13.085788968350773,14.92099335891841,9,12,0.0,81935,33312362898213,31,23.4,-357.0575256347656,0.7294999957084656,16,0.0,0.0,1575420030,,,,0,,1,7.64,19.9,,,,,,47157806311619
Raw,1682241294433,47183400000000,18,,-1366229329033206473,-0.30582141876220703,92.42930536856875,13.085788968350773,14.92099335891841,9,24,0.0,81935,33312353897430,61,18.6,285.57373046875,1.0160000324249268,16,0.0,0.0,1575420030,,,,0,,1,7.64,15.100000000000001,,,,,,47157806311619
Raw,1682241294433,47183400000000,18,,-1366229329033206473,-0.30582141876220703,92.42930536856875,13.085788968350773,14.92099335891841,9,21,0.0,89103,33312353944525,46,20.8,-153.79534912109375,0.7519999742507935,16,0.0,0.0,1575420030,,,,0,,6,7.67,14.8,,,,,,47157806311619
Raw,1682241294433,47183400000000,18,,-1366229329033206473,-0.30582141876220703,92.42930536856875,13.085788968350773,14.92099335891841,9,26,0.0,89103,33312350052424,46,20.2,53.48204040527344,0.7534999847412109,16,0.0,0.0,1575420030,,,,0,,6,7.67,14.2,,,,,,47157806311619
Status,1682241295000,34,0,1,5,1575420030,18.80,184.0,62.0,1,1,0,18.8
Status,1682241295000,34,1,1,11,1575420030,19.50,1.0,43.0,1,1,0,19.5
Status,1682241295000,34,2,1,12,1575420030,24.90,324.0,53.0,1,1,0,24.9
Status,1682241295000,34,3,1,20,1575420030,12.60,73.0,79.0,1,1,0,12.6
Status,1682241295000,34,4,1,24,1575420030,18.60,232.0,23.0,1,1,0,18.6
Status,1682241295000,34,5,1,6,1575420030,0.00,35.0,13.0,0,1,0,0.0
Status,1682241295000,34,6,1,13,1575420030,0.00,165.0,10.0,0,1,0,0.0
Status,1682241295000,34,7,1,19,1575420030,0.00,74.0,21.0,0,1,0,0.0
Status,1682241295000,34,8,1,25,1575420030,0.00,322.0,20.0,0,1,0,0.0
Status,1682241295000,34,9,3,9,1602000000,13.30,312.0,30.0,1,1,0,13.3
Status,1682241295000,34,10,3,16,1602000000,21.90,232.0,59.0,0,1,0,21.9
Status,1682241295000,34,11,3,18,1602000000,0.00,26.0,15.0,0,1,0,0.0
Status,1682241295000,34,12,3,15,1602000000,0.00,172.0,22.0,0,1,0,0.0
Status,1682241295000,34,13,3,19,1602000000,0.00,340.0,26.0,0,1,0,0.0
Status,1682241295000,34,14,3,3,1602000000,0.00,66.0,22.0,0,1,0,0.0
Status,1682241295000,34,15,3,4,1602000000,0.00,122.0,33.0,0,1,0,0.0
Status,1682241295000,34,16,5,8,1561097980,16.80,12.0,58.0,0,1,0,16.8
Status,1682241295000,34,17,5,13,1561097980,16.80,0.0,0.0,1,1,0,16.8
Status,1682241295000,34,18,5,19,1561097980,14.80,170.0,33.0,0,1,0,14.8
Status,1682241295000,34,19,5,1,1561097980,0.00,94.0,16.0,0,1,0,0.0
Status,1682241295000,34,20,5,2,1561097980,0.00,163.0,73.0,0,1,0,0.0
Status,1682241295000,34,21,5,3,1561097980,0.00,109.0,52.0,0,1,0,0.0
Status,1682241295000,34,22,5,5,1561097980,0.00,239.0,60.0,0,1,0,0.0
Status,1682241295000,34,23,5,7,1561097980,0.00,99.0,53.0,0,1,0,0.0
Status,1682241295000,34,24,5,10,1561097980,0.00,78.0,64.0,0,1,0,0.0
Status,1682241295000,34,25,5,20,1561097980,0.00,102.0,45.0,0,1,0,0.0
Status,1682241295000,34,26,5,29,1561097980,0.00,345.0,36.0,0,1,0,0.0
Status,1682241295000,34,27,5,30,1561097980,0.00,49.0,23.0,0,1,0,0.0
Status,1682241295000,34,28,6,21,1575420030,18.90,309.0,67.0,1,1,0,18.9
Status,1682241295000,34,29,6,26,1575420030,22.50,293.0,41.0,1,1,0,22.5
Status,1682241295000,34,30,6,1,1575420030,0.00,322.0,18.0,0,1,0,0.0
Status,1682241295000,34,31,6,7,1575420030,0.00,146.0,20.0,0,1,0,0.0
Status,1682241295000,34,32,6,13,1575420030,0.00,8.0,36.0,0,1,0,0.0
Status,1682241295000,34,33,6,27,1575420030,0.00,153.0,53.0,0,1,0,0.0
Fix,GPS,12.9859925600,80.2373230200,-57.80865478515625,0.0,13.720439,,1682241296000,0.29206163,,47159376769222,6.0
Raw,1682241295433,47184400000000,18,,-1366229329033206475,-0.5707979202270508,96.37657785788178,12.790692825667204,15.716620467186788,9,5,0.0,81935,33313364262850,61,18.8,-352.2811584472656,1.002500057220459,16,0.0,0.0,1575420030,,,,0,,1,7.45,15.3,,,,,,47158806311621
Raw,1682241295433,47184400000000,18,,-1366229329033206475,-0.5707979202270508,96.37657785788178,12.790692825667204,15.716620467186788,9,11,0.0,81935,33313360397970,53,19.5,351.38677978515625,0.9164999723434448,16,0.0,0.0,1575420030,,,,0,,1,7.45,16.0,,,,,,47158806311621
Raw,1682241295433,47184400000000,18,,-1366229329033206475,-0.5707979202270508,96.37657785788178,12.790692825667204,15.716620467186788,9,12,0.0,81935,33313362899431,27,24.9,-357.3049011230469,0.6195000410079956,16,0.0,0.0,1575420030,,,,0,,1,7.45,21.4,,,,,,47158806311621
Raw,1682241295433,47184400000000,18,,-1366229329033206475,-0.5707979202270508,96.37657785788178,12.790692825667204,15.716620467186788,9,13,0.0,16399,33299312376731,83,16.8,131.6910858154297,1.7645000219345093,16,0.0,0.0,1561097980,,,,0,,5,6.58,10.8,,,,,,47158806311621
Raw,1682241295433,47184400000000,18,,-1366229329033206475,-0.5707979202270508,96.37657785788178,12.790692825667204,15.716620467186788,9,21,0.0,89103,33313353945023,61,18.9,-155.06080627441406,0.871999979019165,16,0.0,0.0,1575420030,,,,0,,6,7.49,12.899999999999999,,,,,,47158806311621
Raw,1682241295433,47184400000000,18,,-1366229329033206475,-0.5707979202270508,96.37657785788178,12.790692825667204,15.716620467186788,9,26,0.0,89103,33313350052214,35,22.5,53.66281509399414,0.643500030040741,16,0.0,0.0,1575420030,,,,0,,6,7.49,16.5,,,,,,47158806311621
Status,1682241296000,34,0,1,5,1575420030,18.80,184.0,62.0,1,1,0,18.8
Status,1682241296000,34,1,1,11,1575420030,19.50,1.0,43.0,1,1,0,19.5
Status,1682241296000,34,2,1,12,1575420030,22.60,324.0,53.0,1,1,0,22.6
Status,1682241296000,34,3,1,20,1575420030,12.60,73.0,79.0,1,1,0,12.6
Status,1682241296000,34,4,1,24,1575420030,18.60,232.0,23.0,1,1,0,18.6
Status,1682241296000,34,5,1,6,1575420030,0.00,35.0,13.0,0,1,0,0.0
Status,1682241296000,34,6,1,13,1575420030,0.00,165.0,10.0,0,1,0,0.0
Status,1682241296000,34,7,1,19,1575420030,0.00,74.0,21.0,0,1,0,0.0
Status,1682241296000,34,8,1,25,1575420030,0.00,322.0,20.0,0,1,0,0.0
Status,1682241296000,34,9,3,9,1602000000,13.30,312.0,30.0,1,1,0,13.3
Status,1682241296000,34,10,3,16,1602000000,21.90,232.0,59.0,0,1,0,21.9
Status,1682241296000,34,11,3,18,1602000000,0.00,26.0,15.0,0,1,0,0.0
Status,1682241296000,34,12,3,15,1602000000,0.00,172.0,22.0,0,1,0,0.0
Status,1682241296000,34,13,3,19,1602000000,0.00,340.0,26.0,0,1,0,0.0
Status,1682241296000,34,14,3,3,1602000000,0.00,66.0,22.0,0,1,0,0.0
Status,1682241296000,34,15,3,4,1602000000,0.00,122.0,33.0,0,1,0,0.0
Status,1682241296000,34,16,5,8,1561097980,11.90,12.0,58.0,0,1,0,11.9
Status,1682241296000,34,17,5,13,1561097980,16.80,0.0,0.0,1,1,0,16.8
Status,1682241296000,34,18,5,19,1561097980,14.80,170.0,33.0,0,1,0,14.8
Status,1682241296000,34,19,5,1,1561097980,0.00,94.0,16.0,0,1,0,0.0
Status,1682241296000,34,20,5,2,1561097980,0.00,163.0,73.0,0,1,0,0.0
Status,1682241296000,34,21,5,3,1561097980,0.00,109.0,52.0,0,1,0,0.0
Status,1682241296000,34,22,5,5,1561097980,0.00,239.0,60.0,0,1,0,0.0
Status,1682241296000,34,23,5,7,1561097980,0.00,99.0,53.0,0,1,0,0.0
Status,1682241296000,34,24,5,10,1561097980,0.00,78.0,64.0,0,1,0,0.0
Status,1682241296000,34,25,5,20,1561097980,0.00,102.0,45.0,0,1,0,0.0
Status,1682241296000,34,26,5,29,1561097980,0.00,345.0,36.0,0,1,0,0.0
Status,1682241296000,34,27,5,30,1561097980,0.00,49.0,23.0,0,1,0,0.0
Status,1682241296000,34,28,6,21,1575420030,18.90,309.0,67.0,1,1,0,18.9
Status,1682241296000,34,29,6,26,1575420030,21.20,293.0,41.0,1,1,0,21.2
Status,1682241296000,34,30,6,1,1575420030,0.00,322.0,18.0,0,1,0,0.0
Status,1682241296000,34,31,6,7,1575420030,0.00,146.0,20.0,0,1,0,0.0
Status,1682241296000,34,32,6,13,1575420030,0.00,8.0,36.0,0,1,0,0.0
Status,1682241296000,34,33,6,27,1575420030,0.00,153.0,53.0,0,1,0,0.0
Fix,GPS,12.9859925500,80.2373230400,-57.809906005859375,0.0,13.889284,,1682241297000,0.25553864,,47160376769222,6.0
Raw,1682241296433,47185400000000,18,,-1366229329033206460,-0.5057239532470703,97.6160226855427,13.399359437004641,15.076422642931984,9,12,0.0,81935,33314362900645,35,22.6,-357.52374267578125,0.7294999957084656,16,0.0,0.0,1575420030,,,,0,,1,2.93,19.1,,,,,,47159806311606
Raw,1682241296433,47185400000000,18,,-1366229329033206460,-0.5057239532470703,97.6160226855427,13.399359437004641,15.076422642931984,9,8,0.0,16399,33300311456025,338,11.9,168.35142517089844,9.743000030517578,16,0.0,0.0,1561097980,,,,0,,5,2.87,5.9,,,,,,47159806311606
Raw,1682241296433,47185400000000,18,,-1366229329033206460,-0.5057239532470703,97.6160226855427,13.399359437004641,15.076422642931984,9,26,0.0,89103,33314350052005,40,21.2,53.339317321777344,0.6934999823570251,16,0.0,0.0,1575420030,,,,0,,6,2.93,15.2,,,,,,47159806311606
Status,1682241297000,34,0,1,5,1575420030,18.80,184.0,62.0,1,1,0,18.8
Status,1682241297000,34,1,1,11,1575420030,19.50,1.0,43.0,1,1,0,19.5
Status,1682241297000,34,2,1,12,1575420030,22.60,324.0,53.0,1,1,0,22.6
Status,1682241297000,34,3,1,20,1575420030,12.60,73.0,79.0,0,1,0,12.6
Status,1682241297000,34,4,1,24,1575420030,18.60,232.0,23.0,1,1,0,18.6
Status,1682241297000,34,5,1,6,1575420030,0.00,35.0,13.0,0,1,0,0.0
Status,1682241297000,34,6,1,13,1575420030,0.00,165.0,10.0,0,1,0,0.0
Status,1682241297000,34,7,1,19,1575420030,0.00,74.0,21.0,0,1,0,0.0
Status,1682241297000,34,8,1,25,1575420030,0.00,322.0,20.0,0,1,0,0.0
Status,1682241297000,34,9,3,9,1602000000,13.30,312.0,30.0,1,1,0,13.3
Status,1682241297000,34,10,3,16,1602000000,21.90,232.0,59.0,0,1,0,21.9
Status,1682241297000,34,11,3,18,1602000000,0.00,26.0,15.0,0,1,0,0.0
Status,1682241297000,34,12,3,15,1602000000,0.00,172.0,22.0,0,1,0,0.0
Status,1682241297000,34,13,3,19,1602000000,0.00,340.0,26.0,0,1,0,0.0
Status,1682241297000,34,14,3,3,1602000000,0.00,66.0,22.0,0,1,0,0.0
Status,1682241297000,34,15,3,4,1602000000,0.00,122.0,33.0,0,1,0,0.0
Status,1682241297000,34,16,5,8,1561097980,11.90,12.0,58.0,0,1,0,11.9
Status,1682241297000,34,17,5,13,1561097980,16.80,0.0,0.0,1,1,0,16.8
Status,1682241297000,34,18,5,19,1561097980,14.80,170.0,33.0,0,1,0,14.8
Status,1682241297000,34,19,5,1,1561097980,0.00,94.0,16.0,0,1,0,0.0
Status,1682241297000,34,20,5,2,1561097980,0.00,163.0,73.0,0,1,0,0.0
Status,1682241297000,34,21,5,3,1561097980,0.00,109.0,52.0,0,1,0,0.0
Status,1682241297000,34,22,5,5,1561097980,0.00,239.0,60.0,0,1,0,0.0
Status,1682241297000,34,23,5,7,1561097980,0.00,99.0,53.0,0,1,0,0.0
Status,1682241297000,34,24,5,10,1561097980,0.00,78.0,64.0,0,1,0,0.0
Status,1682241297000,34,25,5,20,1561097980,0.00,102.0,45.0,0,1,0,0.0
Status,1682241297000,34,26,5,29,1561097980,0.00,345.0,36.0,0,1,0,0.0
Status,1682241297000,34,27,5,30,1561097980,0.00,49.0,23.0,0,1,0,0.0
Status,1682241297000,34,28,6,21,1575420030,18.90,309.0,67.0,1,1,0,18.9
Status,1682241297000,34,29,6,26,1575420030,21.20,293.0,41.0,1,1,0,21.2
Status,1682241297000,34,30,6,1,1575420030,0.00,322.0,18.0,0,1,0,0.0
Status,1682241297000,34,31,6,7,1575420030,0.00,146.0,20.0,0,1,0,0.0
Status,1682241297000,34,32,6,13,1575420030,0.00,8.0,36.0,0,1,0,0.0
Status,1682241297000,34,33,6,27,1575420030,0.00,153.0,53.0,0,1,0,0.0
Fix,GPS,12.9859925500,80.2373230400,-57.8145751953125,0.0,14.256955,,1682241298000,0.30413812,,47161376769222,8.0
Status,1682241298000,34,0,1,5,1575420030,18.80,184.0,62.0,1,1,0,18.8
Status,1682241298000,34,1,1,11,1575420030,15.50,1.0,43.0,1,1,0,15.5
Status,1682241298000,34,2,1,12,1575420030,21.80,324.0,53.0,1,1,0,21.8
Status,1682241298000,34,3,1,20,1575420030,12.60,73.0,79.0,0,1,0,12.6
Status,1682241298000,34,4,1,24,1575420030,18.60,232.0,23.0,1,1,0,18.6
Status,1682241298000,34,5,1,6,1575420030,0.00,35.0,13.0,0,1,0,0.0
Status,1682241298000,34,6,1,13,1575420030,0.00,165.0,10.0,0,1,0,0.0
Status,1682241298000,34,7,1,19,1575420030,0.00,74.0,21.0,0,1,0,0.0
Status,1682241298000,34,8,1,25,1575420030,0.00,322.0,20.0,0,1,0,0.0
Status,1682241298000,34,9,3,9,1602000000,13.30,312.0,30.0,1,1,0,13.3
Status,1682241298000,34,10,3,16,1602000000,21.90,232.0,59.0,0,1,0,21.9
Status,1682241298000,34,11,3,18,1602000000,0.00,26.0,15.0,0,1,0,0.0
Status,1682241298000,34,12,3,15,1602000000,0.00,172.0,22.0,0,1,0,0.0
Status,1682241298000,34,13,3,19,1602000000,0.00,340.0,26.0,0,1,0,0.0
Status,1682241298000,34,14,3,3,1602000000,0.00,66.0,22.0,0,1,0,0.0
Status,1682241298000,34,15,3,4,1602000000,0.00,122.0,33.0,0,1,0,0.0
Status,1682241298000,34,16,5,8,1561097980,11.90,12.0,58.0,0,1,0,11.9
Status,1682241298000,34,17,5,13,1561097980,16.80,0.0,0.0,1,1,0,16.8
Status,1682241298000,34,18,5,19,1561097980,14.80,170.0,33.0,0,1,0,14.8
Status,1682241298000,34,19,5,1,1561097980,0.00,94.0,16.0,0,1,0,0.0
Status,1682241298000,34,20,5,2,1561097980,0.00,163.0,73.0,0,1,0,0.0
Status,1682241298000,34,21,5,3,1561097980,0.00,109.0,52.0,0,1,0,0.0
Status,1682241298000,34,22,5,5,1561097980,0.00,239.0,60.0,0,1,0,0.0
Status,1682241298000,34,23,5,7,1561097980,0.00,99.0,53.0,0,1,0,0.0
Status,1682241298000,34,24,5,10,1561097980,0.00,78.0,64.0,0,1,0,0.0
Status,1682241298000,34,25,5,20,1561097980,0.00,102.0,45.0,0,1,0,0.0
Status,1682241298000,34,26,5,29,1561097980,0.00,345.0,36.0,0,1,0,0.0
Status,1682241298000,34,27,5,30,1561097980,0.00,49.0,23.0,0,1,0,0.0
Status,1682241298000,34,28,6,21,1575420030,18.90,309.0,67.0,1,1,0,18.9
Status,1682241298000,34,29,6,26,1575420030,19.90,293.0,41.0,1,1,0,19.9
Status,1682241298000,34,30,6,1,1575420030,0.00,322.0,18.0,0,1,0,0.0
Status,1682241298000,34,31,6,7,1575420030,0.00,146.0,20.0,0,1,0,0.0
Status,1682241298000,34,32,6,13,1575420030,0.00,8.0,36.0,0,1,0,0.0
Status,1682241298000,34,33,6,27,1575420030,0.00,153.0,53.0,0,1,0,0.0
Fix,GPS,12.9859925900,80.2373230600,-57.8209228515625,0.0,14.576206,,1682241299000,0.3667424,,47162376769222,8.0
Raw,1682241298433,47187400000000,18,,-1366229329033206434,-0.726715087890625,132.03041453380138,13.013388379126317,29.221020324947226,9,11,0.0,81935,33316360394486,102,15.5,348.50384521484375,2.756500005722046,16,0.0,0.0,1575420030,,,,0,,1,4.43,12.0,,,,,,47161806311580
Raw,1682241298433,47187400000000,18,,-1366229329033206434,-0.726715087890625,132.03041453380138,13.013388379126317,29.221020324947226,9,12,0.0,81935,33316362903078,43,21.8,-361.7863464355469,1.5394999980926514,16,0.0,0.0,1575420030,,,,0,,1,4.43,18.3,,,,,,47161806311580
Raw,1682241298433,47187400000000,18,,-1366229329033206434,-0.726715087890625,132.03041453380138,13.013388379126317,29.221020324947226,9,26,0.0,89103,33316350051687,55,19.9,48.68663787841797,1.5635000467300415,16,0.0,0.0,1575420030,,,,0,,6,4.41,13.899999999999999,,,,,,47161806311580
Status,1682241299000,34,0,1,5,1575420030,18.80,184.0,62.0,1,1,0,18.8
Status,1682241299000,34,1,1,11,1575420030,18.20,1.0,43.0,1,1,0,18.2
Status,1682241299000,34,2,1,12,1575420030,24.30,324.0,53.0,1,1,0,24.3
Status,1682241299000,34,3,1,20,1575420030,12.60,73.0,79.0,0,1,0,12.6
Status,1682241299000,34,4,1,24,1575420030,14.50,232.0,23.0,1,1,0,14.5
Status,1682241299000,34,5,1,6,1575420030,0.00,35.0,13.0,0,1,0,0.0
Status,1682241299000,34,6,1,13,1575420030,0.00,165.0,10.0,0,1,0,0.0
Status,1682241299000,34,7,1,19,1575420030,0.00,74.0,21.0,0,1,0,0.0
Status,1682241299000,34,8,1,25,1575420030,0.00,322.0,20.0,0,1,0,0.0
Status,1682241299000,34,9,3,9,1602000000,13.30,312.0,30.0,1,1,0,13.3
Status,1682241299000,34,10,3,16,1602000000,10.50,232.0,59.0,0,1,0,10.5
Status,1682241299000,34,11,3,18,1602000000,0.00,26.0,15.0,0,1,0,0.0
Status,1682241299000,34,12,3,15,1602000000,0.00,172.0,22.0,0,1,0,0.0
Status,1682241299000,34,13,3,19,1602000000,0.00,340.0,26.0,0,1,0,0.0
Status,1682241299000,34,14,3,3,1602000000,0.00,66.0,22.0,0,1,0,0.0
Status,1682241299000,34,15,3,4,1602000000,0.00,122.0,33.0,0,1,0,0.0
Status,1682241299000,34,16,5,8,1561097980,11.90,12.0,58.0,0,1,0,11.9
Status,1682241299000,34,17,5,13,1561097980,16.80,0.0,0.0,1,1,0,16.8
Status,1682241299000,34,18,5,19,1561097980,14.80,170.0,33.0,0,1,0,14.8
Status,1682241299000,34,19,5,1,1561097980,0.00,94.0,16.0,0,1,0,0.0
Status,1682241299000,34,20,5,2,1561097980,0.00,163.0,73.0,0,1,0,0.0
Status,1682241299000,34,21,5,3,1561097980,0.00,109.0,52.0,0,1,0,0.0
Status,1682241299000,34,22,5,5,1561097980,0.00,239.0,60.0,0,1,0,0.0
Status,1682241299000,34,23,5,7,1561097980,0.00,99.0,53.0,0,1,0,0.0
Status,1682241299000,34,24,5,10,1561097980,0.00,78.0,64.0,0,1,0,0.0
Status,1682241299000,34,25,5,20,1561097980,0.00,102.0,45.0,0,1,0,0.0
Status,1682241299000,34,26,5,29,1561097980,0.00,345.0,36.0,0,1,0,0.0
Status,1682241299000,34,27,5,30,1561097980,0.00,49.0,23.0,0,1,0,0.0
Status,1682241299000,34,28,6,21,1575420030,16.30,309.0,67.0,1,1,0,16.3
Status,1682241299000,34,29,6,26,1575420030,22.50,293.0,41.0,1,1,0,22.5
Status,1682241299000,34,30,6,1,1575420030,0.00,322.0,18.0,0,1,0,0.0
Status,1682241299000,34,31,6,7,1575420030,0.00,146.0,20.0,0,1,0,0.0
Status,1682241299000,34,32,6,13,1575420030,0.00,8.0,36.0,0,1,0,0.0
Status,1682241299000,34,33,6,27,1575420030,0.00,153.0,53.0,0,1,0,0.0
Fix,GPS,12.9859925600,80.2373230500,-57.8221435546875,0.0,14.4675,,1682241300000,0.30413812,,47163376769222,8.0
Raw,1682241299433,47188400000000,18,,-1366229329033206448,-0.24206829071044922,119.656695460435,2.086157193042342,22.0210498150505,9,16,0.0,49359,44099367145670,374,10.5,319.2638244628906,10.487000465393066,16,0.0,0.0,1601437440,,,,0,,3,5.49,7.5,,,,,,47162806311594
Raw,1682241299433,47188400000000,18,,-1366229329033206448,-0.24206829071044922,119.656695460435,2.086157193042342,22.0210498150505,9,11,0.0,81935,33317360393244,61,18.2,349.1318054199219,1.0764999389648438,16,0.0,0.0,1575420030,,,,0,,1,7.88,14.7,,,,,,47162806311594
Raw,1682241299433,47188400000000,18,,-1366229329033206448,-0.24206829071044922,119.656695460435,2.086157193042342,22.0210498150505,9,12,0.0,81935,33317362904231,27,24.3,-359.4932861328125,0.6694999933242798,16,0.0,0.0,1575420030,,,,0,,1,7.88,20.8,,,,,,47162806311594
Raw,1682241299433,47188400000000,18,,-1366229329033206448,-0.24206829071044922,119.656695460435,2.086157193042342,22.0210498150505,9,24,0.0,81935,33317353892716,136,14.5,282.40533447265625,4.37600040435791,16,0.0,0.0,1575420030,,,,0,,1,7.88,11.0,,,,,,47162806311594
Raw,1682241299433,47188400000000,18,,-1366229329033206448,-0.24206829071044922,119.656695460435,2.086157193042342,22.0210498150505,9,21,0.0,89103,33317353947162,97,16.3,-157.1825714111328,3.2720000743865967,16,0.0,0.0,1575420030,,,,0,,6,7.85,10.3,,,,,,47162806311594
Raw,1682241299433,47188400000000,18,,-1366229329033206448,-0.24206829071044922,119.656695460435,2.086157193042342,22.0210498150505,9,26,0.0,89103,33317350051540,35,22.5,51.62667465209961,0.643500030040741,16,0.0,0.0,1575420030,,,,0,,6,7.85,16.5,,,,,,47162806311594
Status,1682241300000,34,0,1,5,1575420030,18.80,184.0,62.0,1,1,0,18.8
Status,1682241300000,34,1,1,11,1575420030,19.80,1.0,43.0,1,1,0,19.8
Status,1682241300000,34,2,1,12,1575420030,23.50,324.0,53.0,1,1,0,23.5
Status,1682241300000,34,3,1,20,1575420030,12.60,73.0,79.0,0,1,0,12.6
Status,1682241300000,34,4,1,24,1575420030,19.60,232.0,23.0,1,1,0,19.6
Status,1682241300000,34,5,1,6,1575420030,0.00,35.0,13.0,0,1,0,0.0
Status,1682241300000,34,6,1,13,1575420030,0.00,165.0,10.0,0,1,0,0.0
Status,1682241300000,34,7,1,19,1575420030,0.00,74.0,21.0,0,1,0,0.0
Status,1682241300000,34,8,1,25,1575420030,0.00,322.0,20.0,0,1,0,0.0
Status,1682241300000,34,9,3,9,1602000000,13.30,312.0,30.0,1,1,0,13.3
Status,1682241300000,34,10,3,16,1602000000,10.50,232.0,59.0,1,1,0,10.5
Status,1682241300000,34,11,3,15,1602000000,10.10,172.0,22.0,0,1,0,10.1
Status,1682241300000,34,12,3,18,1602000000,0.00,26.0,15.0,0,1,0,0.0
Status,1682241300000,34,13,3,19,1602000000,0.00,340.0,26.0,0,1,0,0.0
Status,1682241300000,34,14,3,3,1602000000,0.00,66.0,22.0,0,1,0,0.0
Status,1682241300000,34,15,3,4,1602000000,0.00,122.0,33.0,0,1,0,0.0
Status,1682241300000,34,16,5,8,1561097980,11.90,12.0,58.0,0,1,0,11.9
Status,1682241300000,34,17,5,13,1561097980,16.80,0.0,0.0,1,1,0,16.8
Status,1682241300000,34,18,5,19,1561097980,14.80,170.0,33.0,0,1,0,14.8
Status,1682241300000,34,19,5,1,1561097980,0.00,94.0,16.0,0,1,0,0.0
Status,1682241300000,34,20,5,2,1561097980,0.00,163.0,73.0,0,1,0,0.0
Status,1682241300000,34,21,5,3,1561097980,0.00,109.0,52.0,0,1,0,0.0
Status,1682241300000,34,22,5,5,1561097980,0.00,239.0,60.0,0,1,0,0.0
Status,1682241300000,34,23,5,7,1561097980,0.00,99.0,53.0,0,1,0,0.0
Status,1682241300000,34,24,5,10,1561097980,0.00,78.0,64.0,0,1,0,0.0
Status,1682241300000,34,25,5,20,1561097980,0.00,102.0,45.0,0,1,0,0.0
Status,1682241300000,34,26,5,29,1561097980,0.00,345.0,36.0,0,1,0,0.0
Status,1682241300000,34,27,5,30,1561097980,0.00,49.0,23.0,0,1,0,0.0
Status,1682241300000,34,28,6,21,1575420030,16.30,309.0,67.0,1,1,0,16.3
Status,1682241300000,34,29,6,26,1575420030,21.10,293.0,41.0,1,1,0,21.1
Status,1682241300000,34,30,6,1,1575420030,0.00,322.0,18.0,0,1,0,0.0
Status,1682241300000,34,31,6,7,1575420030,0.00,146.0,20.0,0,1,0,0.0
Status,1682241300000,34,32,6,13,1575420030,0.00,8.0,36.0,0,1,0,0.0
Status,1682241300000,34,33,6,27,1575420030,0.00,153.0,53.0,0,1,0,0.0
Fix,GPS,12.9859926100,80.2373230500,-57.840850830078125,0.0,14.31763,,1682241301000,0.25553864,,47164376769222,8.0
Raw,1682241300433,47189400000000,18,,-1366229329033206439,-0.8825168609619141,115.85827451199293,6.272841670153236,19.572329203168373,9,9,0.0,49359,44100361526805,168,13.3,-415.1541748046875,5.548000335693359,16,0.0,0.0,1600875010,,,,0,,3,4.73,10.3,,,,,,47163806311585
Raw,1682241300433,47189400000000,18,,-1366229329033206439,-0.8825168609619141,115.85827451199293,6.272841670153236,19.572329203168373,9,15,0.0,49359,44100358439144,373,10.1,774.089599609375,10.47350025177002,16,0.0,0.0,1602000000,,,,0,,3,4.73,7.1,,,,,,47163806311585
Raw,1682241300433,47189400000000,18,,-1366229329033206439,-0.8825168609619141,115.85827451199293,6.272841670153236,19.572329203168373,9,11,0.0,81935,33318360392130,53,19.8,350.6731872558594,0.9164999723434448,16,0.0,0.0,1575420030,,,,0,,1,6.91,16.3,,,,,,47163806311585
Raw,1682241300433,47189400000000,18,,-1366229329033206439,-0.8825168609619141,115.85827451199293,6.272841670153236,19.572329203168373,9,12,0.0,81935,33318362905497,31,23.5,-357.54278564453125,0.6694999933242798,16,0.0,0.0,1575420030,,,,0,,1,6.91,20.0,,,,,,47163806311585
Raw,1682241300433,47189400000000,18,,-1366229329033206439,-0.8825168609619141,115.85827451199293,6.272841670153236,19.572329203168373,9,24,0.0,81935,33318353891711,53,19.6,284.1655578613281,0.9359999895095825,16,0.0,0.0,1575420030,,,,0,,1,6.91,16.1,,,,,,47163806311585
Raw,1682241300433,47189400000000,18,,-1366229329033206439,-0.8825168609619141,115.85827451199293,6.272841670153236,19.572329203168373,9,26,0.0,89103,33318350051365,40,21.1,52.80649185180664,0.6934999823570251,16,0.0,0.0,1575420030,,,,0,,6,6.88,15.100000000000001,,,,,,47163806311585
Status,1682241301000,34,0,1,5,1575420030,18.80,184.0,62.0,1,1,0,18.8
Status,1682241301000,34,1,1,11,1575420030,19.80,1.0,43.0,1,1,0,19.8
Status,1682241301000,34,2,1,12,1575420030,20.40,324.0,53.0,1,1,0,20.4
Status,1682241301000,34,3,1,20,1575420030,12.60,73.0,79.0,0,1,0,12.6
Status,1682241301000,34,4,1,24,1575420030,19.60,232.0,23.0,1,1,0,19.6
Status,1682241301000,34,5,1,6,1575420030,0.00,35.0,13.0,0,1,0,0.0
Status,1682241301000,34,6,1,13,1575420030,0.00,165.0,10.0,0,1,0,0.0
Status,1682241301000,34,7,1,19,1575420030,0.00,74.0,21.0,0,1,0,0.0
Status,1682241301000,34,8,1,25,1575420030,0.00,322.0,20.0,0,1,0,0.0
Status,1682241301000,34,9,3,9,1602000000,13.30,312.0,30.0,1,1,0,13.3
Status,1682241301000,34,10,3,16,1602000000,10.50,232.0,59.0,1,1,0,10.5
Status,1682241301000,34,11,3,15,1602000000,10.10,172.0,22.0,1,1,0,10.1
Status,1682241301000,34,12,3,18,1602000000,0.00,26.0,15.0,0,1,0,0.0
Status,1682241301000,34,13,3,19,1602000000,0.00,340.0,26.0,0,1,0,0.0
Status,1682241301000,34,14,3,3,1602000000,0.00,66.0,22.0,0,1,0,0.0
Status,1682241301000,34,15,3,4,1602000000,0.00,122.0,33.0,0,1,0,0.0
Status,1682241301000,34,16,5,8,1561097980,11.90,12.0,58.0,0,1,0,11.9
