# 
# Header Description:
# 
# Version: v3.0.6.1 Platform: 11 Manufacturer: Realme Model: RMX1851
# 
# Raw,utcTimeMillis,TimeNanos,LeapSecond,TimeUncertaintyNanos,FullBiasNanos,BiasNanos,BiasUncertaintyNanos,DriftNanosPerSecond,DriftUncertaintyNanosPerSecond,HardwareClockDiscontinuityCount,Svid,TimeOffsetNanos,State,ReceivedSvTimeNanos,ReceivedSvTimeUncertaintyNanos,Cn0DbHz,PseudorangeRateMetersPerSecond,PseudorangeRateUncertaintyMetersPerSecond,AccumulatedDeltaRangeState,AccumulatedDeltaRangeMeters,AccumulatedDeltaRangeUncertaintyMeters,CarrierFrequencyHz,CarrierCycles,CarrierPhase,CarrierPhaseUncertainty,MultipathIndicator,SnrInDb,ConstellationType,AgcDb,BasebandCn0DbHz,FullInterSignalBiasNanos,FullInterSignalBiasUncertaintyNanos,SatelliteInterSignalBiasNanos,SatelliteInterSignalBiasUncertaintyNanos,CodeType,ChipsetElapsedRealtimeNanos
# 
# UncalAccel,utcTimeMillis,elapsedRealtimeNanos,UncalAccelXMps2,UncalAccelYMps2,UncalAccelZMps2,BiasXMps2,BiasYMps2,BiasZMps2
# 
# Accel,utcTimeMillis,elapsedRealtimeNanos,AccelXMps2,AccelYMps2,AccelZMps2
# 
# UncalGyro,utcTimeMillis,elapsedRealtimeNanos,UncalGyroXRadPerSec,UncalGyroYRadPerSec,UncalGyroZRadPerSec,DriftXRadPerSec,DriftYRadPerSec,DriftZRadPerSec
# 
# Gyro,utcTimeMillis,elapsedRealtimeNanos,GyroXRadPerSec,GyroYRadPerSec,GyroZRadPerSec
# 
# UncalMag,utcTimeMillis,elapsedRealtimeNanos,UncalMagXMicroT,UncalMagYMicroT,UncalMagZMicroT,BiasXMicroT,BiasYMicroT,BiasZMicroT
# 
# Mag,utcTimeMillis,elapsedRealtimeNanos,MagXMicroT,MagYMicroT,MagZMicroT
# 
# OrientationDeg,utcTimeMillis,elapsedRealtimeNanos,yawDeg,rollDeg,pitchDeg
# 
# Fix,Provider,LatitudeDegrees,LongitudeDegrees,AltitudeMeters,SpeedMps,AccuracyMeters,BearingDegrees,UnixTimeMillis,SpeedAccuracyMps,BearingAccuracyDegrees,elapsedRealtimeNanos,VerticalAccuracyMeters
# 
# Nav,Svid,Type,Status,MessageId,Sub-messageId,Data(Bytes)
# 
# Status,UnixTimeMillis,SignalCount,SignalIndex,ConstellationType,Svid,CarrierFrequencyHz,Cn0DbHz,AzimuthDegrees,ElevationDegrees,UsedInFix,HasAlmanacData,HasEphemerisData,BasebandCn0DbHz
# 
Status,,42,0,1,5,1575420030,27.70,21.0,35.0,1,1,0,27.7
Status,,42,1,1,11,1575420030,21.30,66.0,11.0,1,1,0,21.3
Status,,42,2,1,12,1575420030,18.80,189.0,35.0,1,1,0,18.8
Status,,42,3,1,13,1575420030,25.60,88.0,39.0,1,1,0,25.6
Status,,42,4,1,15,1575420030,22.30,136.0,60.0,1,1,0,22.3
Status,,42,5,1,20,1575420030,21.40,35.0,13.0,1,1,0,21.4
Status,,42,6,1,23,1575420030,22.70,243.0,30.0,1,1,0,22.7
Status,,42,7,1,24,1575420030,16.40,170.0,10.0,1,1,0,16.4
Status,,42,8,1,25,1575420030,20.20,233.0,44.0,1,1,0,20.2
Status,,42,9,1,29,1575420030,18.60,348.0,52.0,0,1,0,18.6
Status,,42,10,1,2,1575420030,0.00,314.0,20.0,0,1,0,0.0
Status,,42,11,1,18,1575420030,0.00,303.0,15.0,0,1,0,0.0
Status,,42,12,3,12,1602000000,27.30,265.0,15.0,1,1,1,27.3
Status,,42,13,3,21,1602000000,22.90,53.0,31.0,0,1,0,22.9
Status,,42,14,3,7,1602000000,19.00,53.0,71.0,1,1,0,19.0
Status,,42,15,3,8,1602000000,15.10,191.0,50.0,1,1,0,15.1
Status,,42,16,3,6,1602000000,0.00,28.0,21.0,0,1,0,0.0
Status,,42,17,5,1,1561097980,19.30,94.0,16.0,0,1,0,19.3
Status,,42,18,5,3,1561097980,24.70,108.0,52.0,1,1,0,24.7
Status,,42,19,5,6,1561097980,16.00,136.0,24.0,1,1,0,16.0
Status,,42,20,5,7,1561097980,10.20,153.0,41.0,0,1,0,10.2
Status,,42,21,5,9,1561097980,10.40,151.0,22.0,0,1,0,10.4
Status,,42,22,5,10,1561097980,14.80,161.0,55.0,0,1,0,14.8
Status,,42,23,5,13,1561097980,17.00,1.0,40.0,1,1,0,17.0
Status,,42,24,5,16,1561097980,16.00,129.0,24.0,1,1,0,16.0
Status,,42,25,5,19,1561097980,22.00,213.0,50.0,0,1,0,22.0
Status,,42,26,5,20,1561097980,21.50,36.0,74.0,0,1,0,21.5
Status,,42,27,5,30,1561097980,21.40,66.0,48.0,0,1,0,21.4
Status,,42,28,5,2,1561097980,0.00,161.0,74.0,0,1,0,0.0
Status,,42,29,5,5,1561097980,0.00,240.0,61.0,0,1,0,0.0
Status,,42,30,5,8,1561097980,0.00,14.0,31.0,0,1,0,0.0
Status,,42,31,5,29,1561097980,0.00,344.0,37.0,0,1,0,0.0
Status,,42,32,4,195,1575420030,23.10,84.0,28.0,0,1,0,23.1
Status,,42,33,4,196,1575420030,15.10,57.0,28.0,0,0,0,15.1
Status,,42,34,6,3,1575420030,15.70,57.0,29.0,1,1,0,15.7
Status,,42,35,6,7,1575420030,17.20,188.0,27.0,1,1,0,17.2
Status,,42,36,6,8,1575420030,22.40,122.0,56.0,1,1,0,22.4
Status,,42,37,6,15,1575420030,23.10,33.0,32.0,1,1,0,23.1
Status,,42,38,6,21,1575420030,15.70,293.0,23.0,1,1,0,15.7
Status,,42,39,6,27,1575420030,21.30,233.0,42.0,1,1,0,21.3
Status,,42,40,6,30,1575420030,18.80,174.0,20.0,1,1,0,18.8
Status,,42,41,6,13,1575420030,0.00,331.0,28.0,0,1,0,0.0
Fix,GPS,12.9855605200,80.2375867700,-82.85000610351562,0.0,9.935046,,1681733960000,0.5240229,,319308418592394,3.0
Raw,1681733959435,319330867000000,18,,-1365449846568191145,-0.89691162109375,30.82785042352043,-5.844189988555107,12.935060577183107,2,12,0.0,49359,55159358400381,19,27.3,227.91653442382812,0.26829999685287476,16,0.0,0.0,1601437440,,,,0,,3,2.49,24.3,,,,,,319307848284400
Raw,1681733959435,319330867000000,18,,-1365449846568191145,-0.89691162109375,30.82785042352043,-5.844189988555107,12.935060577183107,2,21,0.0,49359,55159363384478,35,22.9,-122.94434356689453,0.9909999966621399,16,0.0,0.0,1604249980,,,,0,,3,2.49,19.9,,,,,,319307848284400
Raw,1681733959435,319330867000000,18,,-1365449846568191145,-0.89691162109375,30.82785042352043,-5.844189988555107,12.935060577183107,2,7,0.0,49359,55159370407388,62,19.0,165.26939392089844,2.7115001678466797,16,0.0,0.0,1604812540,,,,0,,3,2.49,16.0,,,,,,319307848284400
Raw,1681733959435,319330867000000,18,,-1365449846568191145,-0.89691162109375,30.82785042352043,-5.844189988555107,12.935060577183107,2,5,0.0,81935,130777361041046,19,27.7,521.9239501953125,0.04280000180006027,16,0.0,0.0,1575420030,,,,0,,1,6.67,24.2,,,,,,319307848284400
Raw,1681733959435,319330867000000,18,,-1365449846568191145,-0.89691162109375,30.82785042352043,-5.844189988555107,12.935060577183107,2,12,0.0,81935,130777359804374,61,18.8,544.3255004882812,0.9950000047683716,16,0.0,0.0,1575420030,,,,0,,1,6.67,15.3,,,,,,319307848284400
Raw,1681733959435,319330867000000,18,,-1365449846568191145,-0.89691162109375,30.82785042352043,-5.844189988555107,12.935060577183107,2,13,0.0,81935,130777362617349,24,25.6,-32.81854248046875,0.384799987077713,16,0.0,0.0,1575420030,,,,0,,1,6.67,22.1,,,,,,319307848284400
Raw,1681733959435,319330867000000,18,,-1365449846568191145,-0.89691162109375,30.82785042352043,-5.844189988555107,12.935060577183107,2,15,0.0,81935,130777366305109,35,22.3,-289.0941467285156,0.7954999804496765,16,0.0,0.0,1575420030,,,,0,,1,6.67,18.8,,,,,,319307848284400
Raw,1681733959435,319330867000000,18,,-1365449846568191145,-0.89691162109375,30.82785042352043,-5.844189988555107,12.935060577183107,2,20,0.0,81935,130777354427349,40,21.4,519.1497192382812,0.8675000071525574,16,0.0,0.0,1575420030,,,,0,,1,6.67,17.9,,,,,,319307848284400
Raw,1681733959435,319330867000000,18,,-1365449846568191145,-0.89691162109375,30.82785042352043,-5.844189988555107,12.935060577183107,2,23,0.0,81935,130777359259089,35,22.7,-340.3973388671875,0.7549999952316284,16,0.0,0.0,1575420030,,,,0,,1,6.67,19.2,,,,,,319307848284400
Raw,1681733959435,319330867000000,18,,-1365449846568191145,-0.89691162109375,30.82785042352043,-5.844189988555107,12.935060577183107,2,25,0.0,81935,130777362513983,46,20.2,308.87518310546875,0.9194999933242798,16,0.0,0.0,1575420030,,,,0,,1,6.67,16.7,,,,,,319307848284400
Raw,1681733959435,319330867000000,18,,-1365449846568191145,-0.89691162109375,30.82785042352043,-5.844189988555107,12.935060577183107,2,29,0.0,81935,130777364145050,69,18.6,-414.0600280761719,2.502500057220459,16,0.0,0.0,1575420030,,,,0,,1,6.67,15.100000000000001,,,,,,319307848284400
Raw,1681733959435,319330867000000,18,,-1365449846568191145,-0.89691162109375,30.82785042352043,-5.844189988555107,12.935060577183107,2,6,0.0,16399,130763304461154,275,16.0,-268.57684326171875,9.867500305175781,16,0.0,0.0,1561097980,,,,0,,5,3.69,10.0,,,,,,319307848284400
Raw,1681733959435,319330867000000,18,,-1365449846568191145,-0.89691162109375,30.82785042352043,-5.844189988555107,12.935060577183107,2,7,0.0,16399,130763310110753,362,10.2,187.32492065429688,9.86150074005127,16,0.0,0.0,1561097980,,,,0,,5,3.69,4.199999999999999,,,,,,319307848284400
Raw,1681733959435,319330867000000,18,,-1365449846568191145,-0.89691162109375,30.82785042352043,-5.844189988555107,12.935060577183107,2,9,0.0,16399,130763305189645,362,10.4,-208.8141326904297,9.854000091552734,16,0.0,0.0,1561097980,,,,0,,5,3.69,4.4,,,,,,319307848284400
Raw,1681733959435,319330867000000,18,,-1365449846568191145,-0.89691162109375,30.82785042352043,-5.844189988555107,12.935060577183107,2,13,0.0,16399,130763308978906,78,17.0,132.86253356933594,2.428499937057495,16,0.0,0.0,1561097980,,,,0,,5,3.69,11.0,,,,,,319307848284400
Raw,1681733959435,319330867000000,18,,-1365449846568191145,-0.89691162109375,30.82785042352043,-5.844189988555107,12.935060577183107,2,16,0.0,16399,130763304837865,678,16.0,-272.7825012207031,4.272500038146973,16,0.0,0.0,1561097980,,,,0,,5,3.69,10.0,,,,,,319307848284400
Raw,1681733959435,319330867000000,18,,-1365449846568191145,-0.89691162109375,30.82785042352043,-5.844189988555107,12.935060577183107,2,20,0.0,16399,130763363414339,40,21.5,165.15396118164062,0.6710000038146973,16,0.0,0.0,1561097980,,,,0,,5,3.69,15.5,,,,,,319307848284400
Raw,1681733959435,319330867000000,18,,-1365449846568191145,-0.89691162109375,30.82785042352043,-5.844189988555107,12.935060577183107,2,30,0.0,16399,130763359161841,40,21.4,-22.036531448364258,0.6949999928474426,16,0.0,0.0,1561097980,,,,0,,5,3.69,15.399999999999999,,,,,,319307848284400
Raw,1681733959435,319330867000000,18,,-1365449846568191145,-0.89691162109375,30.82785042352043,-5.844189988555107,12.935060577183107,2,3,0.0,89103,130777348049423,120,15.7,232.12022399902344,4.100500106811523,16,0.0,0.0,1575420030,,,,0,,6,6.68,9.7,,,,,,319307848284400
Raw,1681733959435,319330867000000,18,,-1365449846568191145,-0.89691162109375,30.82785042352043,-5.844189988555107,12.935060577183107,2,7,0.0,89103,130777348333032,78,17.2,-508.20782470703125,2.440500020980835,16,0.0,0.0,1575420030,,,,0,,6,6.68,11.2,,,,,,319307848284400
Raw,1681733959435,319330867000000,18,,-1365449846568191145,-0.89691162109375,30.82785042352043,-5.844189988555107,12.935060577183107,2,8,0.0,89103,130777355025728,35,22.4,-203.3192901611328,0.6450000405311584,16,0.0,0.0,1575420030,,,,0,,6,6.68,16.4,,,,,,319307848284400
Raw,1681733959435,319330867000000,18,,-1365449846568191145,-0.89691162109375,30.82785042352043,-5.844189988555107,12.935060577183107,2,15,0.0,89103,130777349499063,31,23.1,-5.756383419036865,0.6019999980926514,16,0.0,0.0,1575420030,,,,0,,6,6.68,17.1,,,,,,319307848284400
Raw,1681733959435,319330867000000,18,,-1365449846568191145,-0.89691162109375,30.82785042352043,-5.844189988555107,12.935060577183107,2,21,0.0,89103,130777346296472,110,15.7,-105.48930358886719,3.3535001277923584,16,0.0,0.0,1575420030,,,,0,,6,6.68,9.7,,,,,,319307848284400
Raw,1681733959435,319330867000000,18,,-1365449846568191145,-0.89691162109375,30.82785042352043,-5.844189988555107,12.935060577183107,2,27,0.0,89103,130777352210333,40,21.3,286.2682800292969,0.6904999613761902,16,0.0,0.0,1575420030,,,,0,,6,6.68,15.3,,,,,,319307848284400
Raw,1681733959435,319330867000000,18,,-1365449846568191145,-0.89691162109375,30.82785042352043,-5.844189988555107,12.935060577183107,2,30,0.0,89103,130777345798337,61,18.8,476.6951599121094,0.871999979019165,16,0.0,0.0,1575420030,,,,0,,6,6.68,12.8,,,,,,319307848284400
Status,1681733960000,42,0,1,5,1575420030,24.70,21.0,35.0,1,1,0,24.7
Status,1681733960000,42,1,1,11,1575420030,16.70,66.0,11.0,1,1,0,16.7
Status,1681733960000,42,2,1,12,1575420030,18.80,189.0,35.0,1,1,0,18.8
Status,1681733960000,42,3,1,13,1575420030,26.90,88.0,39.0,1,1,0,26.9
Status,1681733960000,42,4,1,15,1575420030,21.70,136.0,60.0,1,1,0,21.7
Status,1681733960000,42,5,1,20,1575420030,21.40,35.0,13.0,1,1,0,21.4
Status,1681733960000,42,6,1,23,1575420030,23.50,243.0,30.0,1,1,0,23.5
Status,1681733960000,42,7,1,24,1575420030,16.40,170.0,10.0,1,1,0,16.4
Status,1681733960000,42,8,1,25,1575420030,19.00,233.0,44.0,1,1,0,19.0
Status,1681733960000,42,9,1,29,1575420030,23.10,348.0,52.0,0,1,0,23.1
Status,1681733960000,42,10,1,2,1575420030,0.00,314.0,20.0,0,1,0,0.0
Status,1681733960000,42,11,1,18,1575420030,0.00,303.0,15.0,0,1,0,0.0
Status,1681733960000,42,12,3,12,1602000000,20.60,265.0,15.0,1,1,1,20.6
Status,1681733960000,42,13,3,21,1602000000,17.90,53.0,31.0,0,1,0,17.9
Status,1681733960000,42,14,3,7,1602000000,19.00,53.0,71.0,1,1,0,19.0
Status,1681733960000,42,15,3,8,1602000000,13.40,191.0,50.0,1,1,0,13.4
Status,1681733960000,42,16,3,6,1602000000,0.00,28.0,21.0,0,1,0,0.0
Status,1681733960000,42,17,5,1,1561097980,19.30,94.0,16.0,0,1,0,19.3
Status,1681733960000,42,18,5,3,1561097980,24.70,108.0,52.0,1,1,0,24.7
Status,1681733960000,42,19,5,6,1561097980,16.00,136.0,24.0,1,1,0,16.0
Status,1681733960000,42,20,5,7,1561097980,10.20,153.0,41.0,1,1,0,10.2
Status,1681733960000,42,21,5,9,1561097980,20.30,151.0,22.0,1,1,0,20.3
Status,1681733960000,42,22,5,10,1561097980,14.80,161.0,55.0,0,1,0,14.8
Status,1681733960000,42,23,5,13,1561097980,17.00,1.0,40.0,1,1,0,17.0
Status,1681733960000,42,24,5,16,1561097980,16.20,129.0,24.0,1,1,0,16.2
Status,1681733960000,42,25,5,19,1561097980,22.00,213.0,50.0,0,1,0,22.0
Status,1681733960000,42,26,5,20,1561097980,21.50,36.0,74.0,0,1,0,21.5
Status,1681733960000,42,27,5,30,1561097980,22.50,66.0,48.0,0,1,0,22.5
Status,1681733960000,42,28,5,2,1561097980,0.00,161.0,74.0,0,1,0,0.0
Status,1681733960000,42,29,5,5,1561097980,0.00,240.0,61.0,0,1,0,0.0
Status,1681733960000,42,30,5,8,1561097980,0.00,14.0,31.0,0,1,0,0.0
Status,1681733960000,42,31,5,29,1561097980,0.00,344.0,37.0,0,1,0,0.0
Status,1681733960000,42,32,4,195,1575420030,22.50,84.0,28.0,0,1,0,22.5
Status,1681733960000,42,33,4,196,1575420030,15.10,57.0,28.0,0,0,0,15.1
Status,1681733960000,42,34,6,3,1575420030,15.70,57.0,29.0,1,1,0,15.7
Status,1681733960000,42,35,6,7,1575420030,17.20,188.0,27.0,1,1,0,17.2
Status,1681733960000,42,36,6,8,1575420030,22.80,122.0,56.0,1,1,0,22.8
Status,1681733960000,42,37,6,15,1575420030,20.50,33.0,32.0,1,1,0,20.5
Status,1681733960000,42,38,6,21,1575420030,21.10,293.0,23.0,1,1,0,21.1
Status,1681733960000,42,39,6,27,1575420030,20.80,233.0,42.0,1,1,0,20.8
Status,1681733960000,42,40,6,30,1575420030,19.70,174.0,20.0,1,1,0,19.7
Status,1681733960000,42,41,6,13,1575420030,0.00,331.0,28.0,0,1,0,0.0
Fix,GPS,12.9855619400,80.2375862900,-82.80462646484375,0.0,9.935046,,1681733961000,0.2523886,,319309418592394,3.0
Raw,1681733960435,319331867000000,18,,-1365449846568191147,-0.07410335540771484,33.23917189845815,-2.728846426883175,15.390890186045366,2,12,0.0,49359,55160358399558,46,20.6,227.49734497070312,1.1434999704360962,16,0.0,0.0,1601437440,,,,0,,3,-2.5,17.6,,,,,,319308848284402
Raw,1681733960435,319331867000000,18,,-1365449846568191147,-0.07410335540771484,33.23917189845815,-2.728846426883175,15.390890186045366,2,21,0.0,49359,55160363384912,70,17.9,-123.2153091430664,1.371000051498413,16,0.0,0.0,1604249980,,,,0,,3,-2.5,14.899999999999999,,,,,,319308848284402
Raw,1681733960435,319331867000000,18,,-1365449846568191147,-0.07410335540771484,33.23917189845815,-2.728846426883175,15.390890186045366,2,8,0.0,49359,55160367696286,154,13.4,-530.5366821289062,4.807000160217285,16,0.0,0.0,1605374980,,,,0,,3,-2.5,10.4,,,,,,319308848284402
Raw,1681733960435,319331867000000,18,,-1365449846568191147,-0.07410335540771484,33.23917189845815,-2.728846426883175,15.390890186045366,2,5,0.0,81935,130778361039350,27,24.7,520.8338012695312,0.6180000305175781,16,0.0,0.0,1575420030,,,,0,,1,1.55,21.2,,,,,,319308848284402
Raw,1681733960435,319331867000000,18,,-1365449846568191147,-0.07410335540771484,33.23917189845815,-2.728846426883175,15.390890186045366,2,11,0.0,81935,130778353082810,84,16.7,198.89495849609375,1.9359999895095825,16,0.0,0.0,1575420030,,,,0,,1,1.55,13.2,,,,,,319308848284402
Raw,1681733960435,319331867000000,18,,-1365449846568191147,-0.07410335540771484,33.23917189845815,-2.728846426883175,15.390890186045366,2,13,0.0,81935,130778362617443,21,26.9,-32.961544036865234,0.11420000344514847,16,0.0,0.0,1575420030,,,,0,,1,1.55,23.4,,,,,,319308848284402
Raw,1681733960435,319331867000000,18,,-1365449846568191147,-0.07410335540771484,33.23917189845815,-2.728846426883175,15.390890186045366,2,15,0.0,81935,130778366306100,40,21.7,-288.8182067871094,0.7954999804496765,16,0.0,0.0,1575420030,,,,0,,1,1.55,18.2,,,,,,319308848284402
Raw,1681733960435,319331867000000,18,,-1365449846568191147,-0.07410335540771484,33.23917189845815,-2.728846426883175,15.390890186045366,2,23,0.0,81935,130778359260264,31,23.5,-340.96820068359375,0.6949999928474426,16,0.0,0.0,1575420030,,,,0,,1,1.55,20.0,,,,,,319308848284402
Raw,1681733960435,319331867000000,18,,-1365449846568191147,-0.07410335540771484,33.23917189845815,-2.728846426883175,15.390890186045366,2,25,0.0,81935,130778362512997,53,19.0,309.6839294433594,0.999500036239624,16,0.0,0.0,1575420030,,,,0,,1,1.55,15.5,,,,,,319308848284402
Raw,1681733960435,319331867000000,18,,-1365449846568191147,-0.07410335540771484,33.23917189845815,-2.728846426883175,15.390890186045366,2,29,0.0,81935,130778364146489,31,23.1,-414.9163513183594,0.7324999570846558,16,0.0,0.0,1575420030,,,,0,,1,1.55,19.6,,,,,,319308848284402
Raw,1681733960435,319331867000000,18,,-1365449846568191147,-0.07410335540771484,33.23917189845815,-2.728846426883175,15.390890186045366,2,9,0.0,16399,130764305190359,46,20.3,-209.26544189453125,0.7339999675750732,16,0.0,0.0,1561097980,,,,0,,5,-1.13,14.3,,,,,,319308848284402
Raw,1681733960435,319331867000000,18,,-1365449846568191147,-0.07410335540771484,33.23917189845815,-2.728846426883175,15.390890186045366,2,16,0.0,16399,130764304838784,692,16.2,-272.811279296875,5.022500038146973,16,0.0,0.0,1561097980,,,,0,,5,-1.13,10.2,,,,,,319308848284402
Raw,1681733960435,319331867000000,18,,-1365449846568191147,-0.07410335540771484,33.23917189845815,-2.728846426883175,15.390890186045366,2,30,0.0,16399,130764359161893,35,22.5,-22.593446731567383,0.6450000405311584,16,0.0,0.0,1561097980,,,,0,,5,-1.13,16.5,,,,,,319308848284402
Raw,1681733960435,319331867000000,18,,-1365449846568191147,-0.07410335540771484,33.23917189845815,-2.728846426883175,15.390890186045366,2,8,0.0,89103,130778355026392,35,22.8,-204.1946258544922,0.6450000405311584,16,0.0,0.0,1575420030,,,,0,,6,1.59,16.8,,,,,,319308848284402
Raw,1681733960435,319331867000000,18,,-1365449846568191147,-0.07410335540771484,33.23917189845815,-2.728846426883175,15.390890186045366,2,15,0.0,89103,130778349499098,46,20.5,-6.384352684020996,0.7519999742507935,16,0.0,0.0,1575420030,,,,0,,6,1.59,14.5,,,,,,319308848284402
Raw,1681733960435,319331867000000,18,,-1365449846568191147,-0.07410335540771484,33.23917189845815,-2.728846426883175,15.390890186045366,2,21,0.0,89103,130778346296880,40,21.1,-106.09823608398438,0.6934999823570251,16,0.0,0.0,1575420030,,,,0,,6,1.59,15.100000000000001,,,,,,319308848284402
Raw,1681733960435,319331867000000,18,,-1365449846568191147,-0.07410335540771484,33.23917189845815,-2.728846426883175,15.390890186045366,2,27,0.0,89103,130778352209404,46,20.8,284.8981628417969,0.750499963760376,16,0.0,0.0,1575420030,,,,0,,6,1.59,14.8,,,,,,319308848284402
Raw,1681733960435,319331867000000,18,,-1365449846568191147,-0.07410335540771484,33.23917189845815,-2.728846426883175,15.390890186045366,2,30,0.0,89103,130778345796707,53,19.7,474.46875,0.8119999766349792,16,0.0,0.0,1575420030,,,,0,,6,1.59,13.7,,,,,,319308848284402
Status,1681733961000,42,0,1,5,1575420030,30.50,21.0,35.0,1,1,0,30.5
Status,1681733961000,42,1,1,11,1575420030,24.60,66.0,11.0,1,1,0,24.6
Status,1681733961000,42,2,1,12,1575420030,20.80,189.0,35.0,1,1,0,20.8
Status,1681733961000,42,3,1,13,1575420030,29.10,88.0,39.0,1,1,0,29.1
Status,1681733961000,42,4,1,15,1575420030,26.80,136.0,60.0,1,1,0,26.8
Status,1681733961000,42,5,1,20,1575420030,17.80,35.0,13.0,1,1,0,17.8
Status,1681733961000,42,6,1,23,1575420030,28.00,243.0,30.0,1,1,0,28.0
Status,1681733961000,42,7,1,24,1575420030,15.40,170.0,10.0,1,1,0,15.4
Status,1681733961000,42,8,1,25,1575420030,24.40,233.0,44.0,1,1,0,24.4
Status,1681733961000,42,9,1,29,1575420030,22.10,348.0,52.0,0,1,0,22.1
Status,1681733961000,42,10,1,2,1575420030,0.00,314.0,20.0,0,1,0,0.0
Status,1681733961000,42,11,1,18,1575420030,0.00,303.0,15.0,0,1,0,0.0
Status,1681733961000,42,12,3,12,1602000000,26.70,265.0,15.0,1,1,1,26.7
Status,1681733961000,42,13,3,21,1602000000,17.90,53.0,31.0,0,1,0,17.9
Status,1681733961000,42,14,3,7,1602000000,20.00,53.0,71.0,1,1,0,20.0
Status,1681733961000,42,15,3,8,1602000000,22.80,191.0,50.0,1,1,0,22.8
Status,1681733961000,42,16,3,6,1602000000,0.00,28.0,21.0,0,1,0,0.0
Status,1681733961000,42,17,5,1,1561097980,19.30,94.0,16.0,0,1,0,19.3
Status,1681733961000,42,18,5,3,1561097980,24.70,108.0,52.0,1,1,0,24.7
Status,1681733961000,42,19,5,6,1561097980,17.30,136.0,24.0,1,1,0,17.3
Status,1681733961000,42,20,5,7,1561097980,18.40,153.0,41.0,1,1,0,18.4
Status,1681733961000,42,21,5,9,1561097980,19.20,151.0,22.0,1,1,0,19.2
Status,1681733961000,42,22,5,10,1561097980,14.80,161.0,55.0,0,1,0,14.8
Status,1681733961000,42,23,5,13,1561097980,18.10,1.0,40.0,1,1,0,18.1
Status,1681733961000,42,24,5,16,1561097980,17.00,129.0,24.0,1,1,0,17.0
Status,1681733961000,42,25,5,19,1561097980,14.30,213.0,50.0,0,1,0,14.3
Status,1681733961000,42,26,5,20,1561097980,19.50,36.0,74.0,0,1,0,19.5
Status,1681733961000,42,27,5,30,1561097980,25.90,66.0,48.0,0,1,0,25.9
Status,1681733961000,42,28,5,2,1561097980,0.00,161.0,74.0,0,1,0,0.0
Status,1681733961000,42,29,5,5,1561097980,0.00,240.0,61.0,0,1,0,0.0
Status,1681733961000,42,30,5,8,1561097980,0.00,14.0,31.0,0,1,0,0.0
Status,1681733961000,42,31,5,29,1561097980,0.00,344.0,37.0,0,1,0,0.0
Status,1681733961000,42,32,4,195,1575420030,22.80,84.0,28.0,0,1,0,22.8
Status,1681733961000,42,33,4,196,1575420030,18.40,57.0,28.0,0,0,0,18.4
Status,1681733961000,42,34,6,3,1575420030,18.80,57.0,29.0,1,1,0,18.8
Status,1681733961000,42,35,6,7,1575420030,17.20,188.0,27.0,1,1,0,17.2
Status,1681733961000,42,36,6,8,1575420030,26.30,122.0,56.0,1,1,0,26.3
Status,1681733961000,42,37,6,15,1575420030,26.40,33.0,32.0,1,1,0,26.4
Status,1681733961000,42,38,6,21,1575420030,23.20,293.0,23.0,1,1,0,23.2
Status,1681733961000,42,39,6,27,1575420030,23.50,233.0,42.0,1,1,0,23.5
Status,1681733961000,42,40,6,30,1575420030,21.80,174.0,20.0,1,1,0,21.8
Status,1681733961000,42,41,6,13,1575420030,0.00,331.0,28.0,0,1,0,0.0
Fix,GPS,12.9855624000,80.2375854700,-82.62255859375,0.0,9.935046,,1681733962000,0.09899495,,319310418592394,3.0
Raw,1681733961435,319332867000000,18,,-1365449846568191155,-0.34424781799316406,32.39768193452619,-5.43037542544449,13.63052789054501,2,12,0.0,49359,55161358398891,21,26.7,229.47523498535156,0.33820000290870667,16,0.0,0.0,1601437440,,,,0,,3,3.9,23.7,,,,,,319309848284410
Raw,1681733961435,319332867000000,18,,-1365449846568191155,-0.34424781799316406,32.39768193452619,-5.43037542544449,13.63052789054501,2,7,0.0,49359,55161370406357,49,20.0,167.91275024414062,1.881500005722046,16,0.0,0.0,1604812540,,,,0,,3,3.9,17.0,,,,,,319309848284410
Raw,1681733961435,319332867000000,18,,-1365449846568191155,-0.34424781799316406,32.39768193452619,-5.43037542544449,13.63052789054501,2,8,0.0,49359,55161367698222,35,22.8,-529.9765014648438,0.996999979019165,16,0.0,0.0,1605374980,,,,0,,3,3.9,19.8,,,,,,319309848284410
Raw,1681733961435,319332867000000,18,,-1365449846568191155,-0.34424781799316406,32.39768193452619,-5.43037542544449,13.63052789054501,2,5,0.0,81935,130779361037586,14,30.5,522.4334106445312,0.027300000190734863,16,0.0,0.0,1575420030,,,,0,,1,7.78,27.0,,,,,,319309848284410
Raw,1681733961435,319332867000000,18,,-1365449846568191155,-0.34424781799316406,32.39768193452619,-5.43037542544449,13.63052789054501,2,11,0.0,81935,130779353082184,27,24.6,200.88351440429688,0.6360000371932983,16,0.0,0.0,1575420030,,,,0,,1,7.78,21.1,,,,,,319309848284410
Raw,1681733961435,319332867000000,18,,-1365449846568191155,-0.34424781799316406,32.39768193452619,-5.43037542544449,13.63052789054501,2,12,0.0,81935,130779359800585,49,20.8,544.810791015625,1.5950000286102295,16,0.0,0.0,1575420030,,,,0,,1,7.78,17.3,,,,,,319309848284410
Raw,1681733961435,319332867000000,18,,-1365449846568191155,-0.34424781799316406,32.39768193452619,-5.43037542544449,13.63052789054501,2,13,0.0,81935,130779362617575,16,29.1,-30.957489013671875,0.02970000170171261,16,0.0,0.0,1575420030,,,,0,,1,7.78,25.6,,,,,,319309848284410
Raw,1681733961435,319332867000000,18,,-1365449846568191155,-0.34424781799316406,32.39768193452619,-5.43037542544449,13.63052789054501,2,15,0.0,81935,130779366307038,21,26.8,-287.20574951171875,0.12020000070333481,16,0.0,0.0,1575420030,,,,0,,1,7.78,23.3,,,,,,319309848284410
Raw,1681733961435,319332867000000,18,,-1365449846568191155,-0.34424781799316406,32.39768193452619,-5.43037542544449,13.63052789054501,2,20,0.0,81935,130779354423806,73,17.8,519.1401977539062,1.847499966621399,16,0.0,0.0,1575420030,,,,0,,1,7.78,14.3,,,,,,319309848284410
Raw,1681733961435,319332867000000,18,,-1365449846568191155,-0.34424781799316406,32.39768193452619,-5.43037542544449,13.63052789054501,2,23,0.0,81935,130779359261341,17,28.0,-339.6197509765625,0.06180000305175781,16,0.0,0.0,1575420030,,,,0,,1,7.78,24.5,,,,,,319309848284410
Raw,1681733961435,319332867000000,18,,-1365449846568191155,-0.34424781799316406,32.39768193452619,-5.43037542544449,13.63052789054501,2,24,0.0,81935,130779352366518,102,15.4,-174.3660888671875,2.874500036239624,16,0.0,0.0,1575420030,,,,0,,1,7.78,11.9,,,,,,319309848284410
Raw,1681733961435,319332867000000,18,,-1365449846568191155,-0.34424781799316406,32.39768193452619,-5.43037542544449,13.63052789054501,2,25,0.0,81935,130779362511931,27,24.4,310.3023681640625,0.6694999933242798,16,0.0,0.0,1575420030,,,,0,,1,7.78,20.9,,,,,,319309848284410
Raw,1681733961435,319332867000000,18,,-1365449846568191155,-0.34424781799316406,32.39768193452619,-5.43037542544449,13.63052789054501,2,29,0.0,81935,130779364147780,35,22.1,-412.4901123046875,0.7924999594688416,16,0.0,0.0,1575420030,,,,0,,1,7.78,18.6,,,,,,319309848284410
Raw,1681733961435,319332867000000,18,,-1365449846568191155,-0.34424781799316406,32.39768193452619,-5.43037542544449,13.63052789054501,2,6,0.0,16399,130765304462943,74,17.3,-268.40399169921875,1.9574999809265137,16,0.0,0.0,1561097980,,,,0,,5,4.84,11.3,,,,,,319309848284410
Raw,1681733961435,319332867000000,18,,-1365449846568191155,-0.34424781799316406,32.39768193452619,-5.43037542544449,13.63052789054501,2,7,0.0,16399,130765310109479,63,18.4,186.2303009033203,1.6115000247955322,16,0.0,0.0,1561097980,,,,0,,5,4.84,12.399999999999999,,,,,,319309848284410
Raw,1681733961435,319332867000000,18,,-1365449846568191155,-0.34424781799316406,32.39768193452619,-5.43037542544449,13.63052789054501,2,9,0.0,16399,130765305191018,53,19.2,-208.60289001464844,0.793999969959259,16,0.0,0.0,1561097980,,,,0,,5,4.84,13.2,,,,,,319309848284410
Raw,1681733961435,319332867000000,18,,-1365449846568191155,-0.34424781799316406,32.39768193452619,-5.43037542544449,13.63052789054501,2,13,0.0,16399,130765308977998,63,18.1,132.9297332763672,1.6085000038146973,16,0.0,0.0,1561097980,,,,0,,5,4.84,12.100000000000001,,,,,,319309848284410
Raw,1681733961435,319332867000000,18,,-1365449846568191155,-0.34424781799316406,32.39768193452619,-5.43037542544449,13.63052789054501,2,16,0.0,16399,130765304839684,622,17.0,-272.80169677734375,5.692500114440918,16,0.0,0.0,1561097980,,,,0,,5,4.84,11.0,,,,,,319309848284410
Raw,1681733961435,319332867000000,18,,-1365449846568191155,-0.34424781799316406,32.39768193452619,-5.43037542544449,13.63052789054501,2,19,0.0,16399,130765358826735,203,14.3,-374.7746887207031,7.19350004196167,16,0.0,0.0,1561097980,,,,0,,5,4.84,8.3,,,,,,319309848284410
Raw,1681733961435,319332867000000,18,,-1365449846568191155,-0.34424781799316406,32.39768193452619,-5.43037542544449,13.63052789054501,2,20,0.0,16399,130765363413234,55,19.5,166.7574920654297,1.5410000085830688,16,0.0,0.0,1561097980,,,,0,,5,4.84,13.5,,,,,,319309848284410
Raw,1681733961435,319332867000000,18,,-1365449846568191155,-0.34424781799316406,32.39768193452619,-5.43037542544449,13.63052789054501,2,30,0.0,16399,130765359161956,24,25.9,-21.484130859375,0.41030001640319824,16,0.0,0.0,1561097980,,,,0,,5,4.84,19.9,,,,,,319309848284410
Raw,1681733961435,319332867000000,18,,-1365449846568191155,-0.34424781799316406,32.39768193452619,-5.43037542544449,13.63052789054501,2,3,0.0,89103,130779348047864,64,18.8,232.947998046875,1.6204999685287476,16,0.0,0.0,1575420030,,,,0,,6,7.82,12.8,,,,,,319309848284410
Raw,1681733961435,319332867000000,18,,-1365449846568191155,-0.34424781799316406,32.39768193452619,-5.43037542544449,13.63052789054501,2,8,0.0,89103,130779355027120,21,26.3,-202.5962371826172,0.1397000104188919,16,0.0,0.0,1575420030,,,,0,,6,7.82,20.3,,,,,,319309848284410
Raw,1681733961435,319332867000000,18,,-1365449846568191155,-0.34424781799316406,32.39768193452619,-5.43037542544449,13.63052789054501,2,15,0.0,89103,130779349499083,21,26.4,-4.871345043182373,0.13670000433921814,16,0.0,0.0,1575420030,,,,0,,6,7.82,20.4,,,,,,319309848284410
Raw,1681733961435,319332867000000,18,,-1365449846568191155,-0.34424781799316406,32.39768193452619,-5.43037542544449,13.63052789054501,2,21,0.0,89103,130779346297197,31,23.2,-103.77665710449219,0.6035000085830688,16,0.0,0.0,1575420030,,,,0,,6,7.82,17.2,,,,,,319309848284410
Raw,1681733961435,319332867000000,18,,-1365449846568191155,-0.34424781799316406,32.39768193452619,-5.43037542544449,13.63052789054501,2,27,0.0,89103,130779352208434,31,23.5,286.4300537109375,0.6004999876022339,16,0.0,0.0,1575420030,,,,0,,6,7.82,17.5,,,,,,319309848284410
Raw,1681733961435,319332867000000,18,,-1365449846568191155,-0.34424781799316406,32.39768193452619,-5.43037542544449,13.63052789054501,2,30,0.0,89103,130779345795117,40,21.8,476.6571044921875,0.6919999718666077,16,0.0,0.0,1575420030,,,,0,,6,7.82,15.8,,,,,,319309848284410
Status,1681733962000,42,0,1,5,1575420030,30.00,21.0,35.0,1,1,0,30.0
Status,1681733962000,42,1,1,11,1575420030,20.50,66.0,11.0,1,1,0,20.5
Status,1681733962000,42,2,1,12,1575420030,20.80,189.0,35.0,1,1,0,20.8
Status,1681733962000,42,3,1,13,1575420030,27.30,88.0,39.0,1,1,0,27.3
Status,1681733962000,42,4,1,15,1575420030,22.30,136.0,60.0,1,1,0,22.3
Status,1681733962000,42,5,1,20,1575420030,17.80,35.0,13.0,1,1,0,17.8
Status,1681733962000,42,6,1,23,1575420030,27.80,243.0,30.0,1,1,0,27.8
Status,1681733962000,42,7,1,24,1575420030,15.40,170.0,10.0,1,1,0,15.4
Status,1681733962000,42,8,1,25,1575420030,21.40,233.0,44.0,1,1,0,21.4
Status,1681733962000,42,9,1,29,1575420030,18.50,348.0,52.0,0,1,0,18.5
Status,1681733962000,42,10,1,2,1575420030,0.00,314.0,20.0,0,1,0,0.0
Status,1681733962000,42,11,1,18,1575420030,0.00,303.0,15.0,0,1,0,0.0
Status,1681733962000,42,12,3,12,1602000000,28.20,265.0,15.0,1,1,1,28.2
Status,1681733962000,42,13,3,21,1602000000,21.80,53.0,31.0,0,1,0,21.8
Status,1681733962000,42,14,3,7,1602000000,20.00,53.0,71.0,1,1,0,20.0
Status,1681733962000,42,15,3,8,1602000000,22.80,191.0,50.0,1,1,0,22.8
Status,1681733962000,42,16,3,6,1602000000,0.00,28.0,21.0,0,1,0,0.0
Status,1681733962000,42,17,5,1,1561097980,19.30,94.0,16.0,0,1,0,19.3
Status,1681733962000,42,18,5,3,1561097980,24.70,108.0,52.0,1,1,0,24.7
Status,1681733962000,42,19,5,6,1561097980,19.30,136.0,24.0,1,1,0,19.3
Status,1681733962000,42,20,5,7,1561097980,18.40,153.0,41.0,1,1,0,18.4
Status,1681733962000,42,21,5,9,1561097980,19.20,151.0,22.0,1,1,0,19.2
Status,1681733962000,42,22,5,10,1561097980,14.80,161.0,55.0,0,1,0,14.8
Status,1681733962000,42,23,5,13,1561097980,18.10,1.0,40.0,1,1,0,18.1
Status,1681733962000,42,24,5,16,1561097980,17.30,129.0,24.0,1,1,0,17.3
Status,1681733962000,42,25,5,19,1561097980,14.30,213.0,50.0,0,1,0,14.3
Status,1681733962000,42,26,5,20,1561097980,19.50,36.0,74.0,0,1,0,19.5
Status,1681733962000,42,27,5,30,1561097980,26.20,66.0,48.0,0,1,0,26.2
Status,1681733962000,42,28,5,2,1561097980,0.00,161.0,74.0,0,1,0,0.0
Status,1681733962000,42,29,5,5,1561097980,0.00,240.0,61.0,0,1,0,0.0
Status,1681733962000,42,30,5,8,1561097980,0.00,14.0,31.0,0,1,0,0.0
Status,1681733962000,42,31,5,29,1561097980,0.00,344.0,37.0,0,1,0,0.0
Status,1681733962000,42,32,4,195,1575420030,28.00,84.0,28.0,0,1,0,28.0
Status,1681733962000,42,33,4,196,1575420030,27.20,57.0,28.0,0,0,0,27.2
Status,1681733962000,42,34,6,3,1575420030,27.20,57.0,29.0,1,1,0,27.2
Status,1681733962000,42,35,6,7,1575420030,17.40,188.0,27.0,1,1,0,17.4
Status,1681733962000,42,36,6,8,1575420030,26.30,122.0,56.0,1,1,0,26.3
Status,1681733962000,42,37,6,15,1575420030,24.80,33.0,32.0,1,1,0,24.8
Status,1681733962000,42,38,6,21,1575420030,23.30,293.0,23.0,1,1,0,23.3
Status,1681733962000,42,39,6,27,1575420030,21.60,233.0,42.0,1,1,0,21.6
Status,1681733962000,42,40,6,30,1575420030,22.50,174.0,20.0,1,1,0,22.5
Status,1681733962000,42,41,6,13,1575420030,0.00,331.0,28.0,0,1,0,0.0
Fix,GPS,12.9855628900,80.2375846900,-82.56707763671875,0.0,9.935046,,1681733963000,0.15811388,,319311418592394,3.0
Raw,1681733962435,319333867000000,18,,-1365449846568191151,-0.1719226837158203,26.001825972343795,-0.06280420875709776,9.739830069527295,2,12,0.0,49359,55162358398080,17,28.2,230.57870483398438,0.26030001044273376,16,0.0,0.0,1601437440,,,,0,,3,1.67,25.2,,,,,,319310848284406
Raw,1681733962435,319333867000000,18,,-1365449846568191151,-0.1719226837158203,26.001825972343795,-0.06280420875709776,9.739830069527295,2,21,0.0,49359,55162363385749,43,21.8,-120.22532653808594,1.8009999990463257,16,0.0,0.0,1604249980,,,,0,,3,1.67,18.8,,,,,,319310848284406
Raw,1681733962435,319333867000000,18,,-1365449846568191151,-0.1719226837158203,26.001825972343795,-0.06280420875709776,9.739830069527295,2,5,0.0,81935,130780361035874,14,30.0,523.2338256835938,0.027300000190734863,16,0.0,0.0,1575420030,,,,0,,1,5.95,26.5,,,,,,319310848284406
Raw,1681733962435,319333867000000,18,,-1365449846568191151,-0.1719226837158203,26.001825972343795,-0.06280420875709776,9.739830069527295,2,11,0.0,81935,130780353081353,46,20.5,202.49148559570312,0.8659999966621399,16,0.0,0.0,1575420030,,,,0,,1,5.95,17.0,,,,,,319310848284406
Raw,1681733962435,319333867000000,18,,-1365449846568191151,-0.1719226837158203,26.001825972343795,-0.06280420875709776,9.739830069527295,2,13,0.0,81935,130780362617712,19,27.3,-29.90432357788086,0.04430000111460686,16,0.0,0.0,1575420030,,,,0,,1,5.95,23.8,,,,,,319310848284406
Raw,1681733962435,319333867000000,18,,-1365449846568191151,-0.1719226837158203,26.001825972343795,-0.06280420875709776,9.739830069527295,2,15,0.0,81935,130780366307968,35,22.3,-286.49664306640625,0.7954999804496765,16,0.0,0.0,1575420030,,,,0,,1,5.95,18.8,,,,,,319310848284406
Raw,1681733962435,319333867000000,18,,-1365449846568191151,-0.1719226837158203,26.001825972343795,-0.06280420875709776,9.739830069527295,2,23,0.0,81935,130780359262480,19,27.8,-338.27044677734375,0.06980000436306,16,0.0,0.0,1575420030,,,,0,,1,5.95,24.3,,,,,,319310848284406
Raw,1681733962435,319333867000000,18,,-1365449846568191151,-0.1719226837158203,26.001825972343795,-0.06280420875709776,9.739830069527295,2,25,0.0,81935,130780362511036,40,21.4,310.9779357910156,0.8495000004768372,16,0.0,0.0,1575420030,,,,0,,1,5.95,17.9,,,,,,319310848284406
Raw,1681733962435,319333867000000,18,,-1365449846568191151,-0.1719226837158203,26.001825972343795,-0.06280420875709776,9.739830069527295,2,29,0.0,81935,130780364149239,61,18.5,-411.7098693847656,1.002500057220459,16,0.0,0.0,1575420030,,,,0,,1,5.95,15.0,,,,,,319310848284406
Raw,1681733962435,319333867000000,18,,-1365449846568191151,-0.1719226837158203,26.001825972343795,-0.06280420875709776,9.739830069527295,2,6,0.0,16399,130766304463836,53,19.3,-267.3381652832031,0.7924999594688416,16,0.0,0.0,1561097980,,,,0,,5,2.33,13.3,,,,,,319310848284406
Raw,1681733962435,319333867000000,18,,-1365449846568191151,-0.1719226837158203,26.001825972343795,-0.06280420875709776,9.739830069527295,2,16,0.0,16399,130766304840588,640,17.3,-272.3504333496094,6.442500114440918,16,0.0,0.0,1561097980,,,,0,,5,2.33,11.3,,,,,,319310848284406
Raw,1681733962435,319333867000000,18,,-1365449846568191151,-0.1719226837158203,26.001825972343795,-0.06280420875709776,9.739830069527295,2,30,0.0,16399,130766359162028,21,26.2,-20.52364730834961,0.1397000104188919,16,0.0,0.0,1561097980,,,,0,,5,2.33,20.2,,,,,,319310848284406
Raw,1681733962435,319333867000000,18,,-1365449846568191151,-0.1719226837158203,26.001825972343795,-0.06280420875709776,9.739830069527295,2,3,0.0,89103,130780348047105,19,27.2,233.35595703125,0.06530000269412994,16,0.0,0.0,1575420030,,,,0,,6,6.0,21.2,,,,,,319310848284406
Raw,1681733962435,319333867000000,18,,-1365449846568191151,-0.1719226837158203,26.001825972343795,-0.06280420875709776,9.739830069527295,2,7,0.0,89103,130780348338059,78,17.4,-507.9699401855469,2.440500020980835,16,0.0,0.0,1575420030,,,,0,,6,6.0,11.399999999999999,,,,,,319310848284406
Raw,1681733962435,319333867000000,18,,-1365449846568191151,-0.1719226837158203,26.001825972343795,-0.06280420875709776,9.739830069527295,2,15,0.0,89103,130780349499093,27,24.8,-4.2911224365234375,0.5519999861717224,16,0.0,0.0,1575420030,,,,0,,6,6.0,18.8,,,,,,319310848284406
Raw,1681733962435,319333867000000,18,,-1365449846568191151,-0.1719226837158203,26.001825972343795,-0.06280420875709776,9.739830069527295,2,21,0.0,89103,130780346297559,31,23.3,-102.49217987060547,0.6035000085830688,16,0.0,0.0,1575420030,,,,0,,6,6.0,17.3,,,,,,319310848284406
Raw,1681733962435,319333867000000,18,,-1365449846568191151,-0.1719226837158203,26.001825972343795,-0.06280420875709776,9.739830069527295,2,27,0.0,89103,130780352207497,40,21.6,287.2958679199219,0.6904999613761902,16,0.0,0.0,1575420030,,,,0,,6,6.0,15.600000000000001,,,,,,319310848284406
Raw,1681733962435,319333867000000,18,,-1365449846568191151,-0.1719226837158203,26.001825972343795,-0.06280420875709776,9.739830069527295,2,30,0.0,89103,130780345793589,35,22.5,477.26605224609375,0.6420000195503235,16,0.0,0.0,1575420030,,,,0,,6,6.0,16.5,,,,,,319310848284406
Status,1681733963000,42,0,1,5,1575420030,24.30,21.0,35.0,1,1,0,24.3
Status,1681733963000,42,1,1,11,1575420030,20.50,66.0,11.0,1,1,0,20.5
Status,1681733963000,42,2,1,12,1575420030,19.60,189.0,35.0,1,1,0,19.6
Status,1681733963000,42,3,1,13,1575420030,21.10,88.0,39.0,1,1,0,21.1
Status,1681733963000,42,4,1,15,1575420030,22.30,136.0,60.0,1,1,0,22.3
Status,1681733963000,42,5,1,20,1575420030,17.80,35.0,13.0,1,1,0,17.8
Status,1681733963000,42,6,1,23,1575420030,22.40,243.0,30.0,1,1,0,22.4
Status,1681733963000,42,7,1,24,1575420030,15.60,170.0,10.0,1,1,0,15.6
Status,1681733963000,42,8,1,25,1575420030,17.50,233.0,44.0,1,1,0,17.5
Status,1681733963000,42,9,1,29,1575420030,18.50,348.0,52.0,0,1,0,18.5
Status,1681733963000,42,10,1,2,1575420030,0.00,314.0,20.0,0,1,0,0.0
Status,1681733963000,42,11,1,18,1575420030,0.00,303.0,15.0,0,1,0,0.0
Status,1681733963000,42,12,3,12,1602000000,23.60,265.0,15.0,1,1,1,23.6
Status,1681733963000,42,13,3,21,1602000000,28.00,53.0,31.0,0,1,0,28.0
Status,1681733963000,42,14,3,7,1602000000,20.00,53.0,71.0,1,1,0,20.0
Status,1681733963000,42,15,3,8,1602000000,22.80,191.0,50.0,1,1,0,22.8
Status,1681733963000,42,16,3,6,1602000000,0.00,28.0,21.0,0,1,0,0.0
Status,1681733963000,42,17,5,3,1561097980,24.70,108.0,52.0,1,1,0,24.7
Status,1681733963000,42,18,5,6,1561097980,19.30,136.0,24.0,1,1,0,19.3
Status,1681733963000,42,19,5,7,1561097980,18.40,153.0,41.0,1,1,0,18.4
Status,1681733963000,42,20,5,9,1561097980,19.20,151.0,22.0,1,1,0,19.2
Status,1681733963000,42,21,5,10,1561097980,14.80,161.0,55.0,0,1,0,14.8
Status,1681733963000,42,22,5,13,1561097980,18.10,1.0,40.0,1,1,0,18.1
Status,1681733963000,42,23,5,16,1561097980,17.30,129.0,24.0,1,1,0,17.3
Status,1681733963000,42,24,5,19,1561097980,14.30,213.0,50.0,0,1,0,14.3
Status,1681733963000,42,25,5,20,1561097980,19.50,36.0,74.0,0,1,0,19.5
Status,1681733963000,42,26,5,30,1561097980,21.20,66.0,48.0,0,1,0,21.2
Status,1681733963000,42,27,5,1,1561097980,0.00,94.0,16.0,0,1,0,0.0
Status,1681733963000,42,28,5,2,1561097980,0.00,161.0,74.0,0,1,0,0.0
Status,1681733963000,42,29,5,5,1561097980,0.00,240.0,61.0,0,1,0,0.0
Status,1681733963000,42,30,5,8,1561097980,0.00,14.0,31.0,0,1,0,0.0
Status,1681733963000,42,31,5,29,1561097980,0.00,344.0,37.0,0,1,0,0.0
Status,1681733963000,42,32,4,195,1575420030,24.00,84.0,28.0,0,1,0,24.0
Status,1681733963000,42,33,4,196,1575420030,25.60,57.0,28.0,0,0,0,25.6
Status,1681733963000,42,34,6,3,1575420030,26.80,57.0,29.0,1,1,0,26.8
Status,1681733963000,42,35,6,7,1575420030,19.70,188.0,27.0,1,1,0,19.7
Status,1681733963000,42,36,6,8,1575420030,26.30,122.0,56.0,1,1,0,26.3
Status,1681733963000,42,37,6,15,1575420030,24.30,33.0,32.0,1,1,0,24.3
Status,1681733963000,42,38,6,21,1575420030,22.80,293.0,23.0,1,1,0,22.8
Status,1681733963000,42,39,6,27,1575420030,18.50,233.0,42.0,1,1,0,18.5
Status,1681733963000,42,40,6,30,1575420030,18.50,174.0,20.0,1,1,0,18.5
Status,1681733963000,42,41,6,13,1575420030,0.00,331.0,28.0,0,1,0,0.0
Fix,GPS,12.9855630700,80.2375846100,-82.59487915039062,0.0,9.935046,,1681733964000,0.26925823,,319312418592394,3.0
Raw,1681733963435,319334867000000,18,,-1365449846568191151,-0.8573760986328125,29.774608265142888,2.808080846631212,12.413904056538474,2,12,0.0,49359,55163358397337,31,23.6,229.4442596435547,0.953499972820282,16,0.0,0.0,1601437440,,,,0,,3,0.9,20.6,,,,,,319311848284406
Raw,1681733963435,319334867000000,18,,-1365449846568191151,-0.8573760986328125,29.774608265142888,2.808080846631212,12.413904056538474,2,21,0.0,49359,55163363386240,17,28.0,-121.44618225097656,0.2378000020980835,16,0.0,0.0,1604249980,,,,0,,3,0.9,25.0,,,,,,319311848284406
Raw,1681733963435,319334867000000,18,,-1365449846568191151,-0.8573760986328125,29.774608265142888,2.808080846631212,12.413904056538474,2,5,0.0,81935,130781361034083,27,24.3,522.232421875,0.6679999828338623,16,0.0,0.0,1575420030,,,,0,,1,5.82,20.8,,,,,,319311848284406
Raw,1681733963435,319334867000000,18,,-1365449846568191151,-0.8573760986328125,29.774608265142888,2.808080846631212,12.413904056538474,2,12,0.0,81935,130781359797022,56,19.6,545.8478393554688,1.6649999618530273,16,0.0,0.0,1575420030,,,,0,,1,5.82,16.1,,,,,,319311848284406
Raw,1681733963435,319334867000000,18,,-1365449846568191151,-0.8573760986328125,29.774608265142888,2.808080846631212,12.413904056538474,2,13,0.0,81935,130781362617797,40,21.1,-30.865633010864258,0.8495000004768372,16,0.0,0.0,1575420030,,,,0,,1,5.82,17.6,,,,,,319311848284406
Raw,1681733963435,319334867000000,18,,-1365449846568191151,-0.8573760986328125,29.774608265142888,2.808080846631212,12.413904056538474,2,23,0.0,81935,130781359263573,35,22.4,-338.7988586425781,0.8149999976158142,16,0.0,0.0,1575420030,,,,0,,1,5.82,18.9,,,,,,319311848284406
Raw,1681733963435,319334867000000,18,,-1365449846568191151,-0.8573760986328125,29.774608265142888,2.808080846631212,12.413904056538474,2,24,0.0,81935,130781352367714,96,15.6,-173.2718963623047,2.0245001316070557,16,0.0,0.0,1575420030,,,,0,,1,5.82,12.1,,,,,,319311848284406
Raw,1681733963435,319334867000000,18,,-1365449846568191151,-0.8573760986328125,29.774608265142888,2.808080846631212,12.413904056538474,2,25,0.0,81935,130781362509906,70,17.5,311.1301574707031,1.0794999599456787,16,0.0,0.0,1575420030,,,,0,,1,5.82,14.0,,,,,,319311848284406
Raw,1681733963435,319334867000000,18,,-1365449846568191151,-0.8573760986328125,29.774608265142888,2.808080846631212,12.413904056538474,2,16,0.0,16399,130767304841499,662,17.3,-272.31201171875,7.192500114440918,16,0.0,0.0,1561097980,,,,0,,5,1.45,11.3,,,,,,319311848284406
Raw,1681733963435,319334867000000,18,,-1365449846568191151,-0.8573760986328125,29.774608265142888,2.808080846631212,12.413904056538474,2,30,0.0,16399,130767359162081,40,21.2,-21.15315055847168,0.6949999928474426,16,0.0,0.0,1561097980,,,,0,,5,1.45,15.2,,,,,,319311848284406
Raw,1681733963435,319334867000000,18,,-1365449846568191151,-0.8573760986328125,29.774608265142888,2.808080846631212,12.413904056538474,2,3,0.0,89103,130781348046340,21,26.8,232.82711791992188,0.13520000874996185,16,0.0,0.0,1575420030,,,,0,,6,5.86,20.8,,,,,,319311848284406
Raw,1681733963435,319334867000000,18,,-1365449846568191151,-0.8573760986328125,29.774608265142888,2.808080846631212,12.413904056538474,2,7,0.0,89103,130781348339755,53,19.7,-508.1126708984375,0.8104999661445618,16,0.0,0.0,1575420030,,,,0,,6,5.86,13.7,,,,,,319311848284406
Raw,1681733963435,319334867000000,18,,-1365449846568191151,-0.8573760986328125,29.774608265142888,2.808080846631212,12.413904056538474,2,15,0.0,89103,130781349499104,27,24.3,-5.528031349182129,0.5519999861717224,16,0.0,0.0,1575420030,,,,0,,6,5.86,18.3,,,,,,319311848284406
Raw,1681733963435,319334867000000,18,,-1365449846568191151,-0.8573760986328125,29.774608265142888,2.808080846631212,12.413904056538474,2,21,0.0,89103,130781346297894,35,22.8,-104.07160949707031,0.643500030040741,16,0.0,0.0,1575420030,,,,0,,6,5.86,16.8,,,,,,319311848284406
Raw,1681733963435,319334867000000,18,,-1365449846568191151,-0.8573760986328125,29.774608265142888,2.808080846631212,12.413904056538474,2,27,0.0,89103,130781352206490,61,18.5,285.897216796875,0.8704999685287476,16,0.0,0.0,1575420030,,,,0,,6,5.86,12.5,,,,,,319311848284406
Raw,1681733963435,319334867000000,18,,-1365449846568191151,-0.8573760986328125,29.774608265142888,2.808080846631212,12.413904056538474,2,30,0.0,89103,130781345791980,61,18.5,477.07574462890625,0.871999979019165,16,0.0,0.0,1575420030,,,,0,,6,5.86,12.5,,,,,,319311848284406
Status,1681733964000,42,0,1,5,1575420030,28.00,21.0,35.0,1,1,0,28.0
Status,1681733964000,42,1,1,11,1575420030,18.30,66.0,11.0,1,1,0,18.3
Status,1681733964000,42,2,1,12,1575420030,23.30,189.0,35.0,1,1,0,23.3
Status,1681733964000,42,3,1,13,1575420030,23.20,88.0,39.0,1,1,0,23.2
Status,1681733964000,42,4,1,15,1575420030,22.30,136.0,60.0,1,1,0,22.3
Status,1681733964000,42,5,1,20,1575420030,15.40,35.0,13.0,1,1,0,15.4
Status,1681733964000,42,6,1,23,1575420030,24.20,243.0,30.0,1,1,0,24.2
Status,1681733964000,42,7,1,24,1575420030,15.60,170.0,10.0,1,1,0,15.6
Status,1681733964000,42,8,1,25,1575420030,19.40,233.0,44.0,1,1,0,19.4
Status,1681733964000,42,9,1,29,1575420030,21.20,348.0,52.0,0,1,0,21.2
Status,1681733964000,42,10,1,2,1575420030,0.00,314.0,20.0,0,1,0,0.0
Status,1681733964000,42,11,1,18,1575420030,0.00,303.0,15.0,0,1,0,0.0
Status,1681733964000,42,12,3,12,1602000000,26.30,265.0,15.0,1,1,1,26.3
Status,1681733964000,42,13,3,21,1602000000,33.00,53.0,31.0,0,1,0,33.0
Status,1681733964000,42,14,3,7,1602000000,20.00,53.0,71.0,1,1,0,20.0
Status,1681733964000,42,15,3,8,1602000000,22.80,191.0,50.0,1,1,0,22.8
Status,1681733964000,42,16,3,6,1602000000,0.00,28.0,21.0,0,1,0,0.0
Status,1681733964000,42,17,5,3,1561097980,24.70,108.0,52.0,0,1,0,24.7
Status,1681733964000,42,18,5,6,1561097980,18.20,136.0,24.0,1,1,0,18.2
Status,1681733964000,42,19,5,7,1561097980,18.40,153.0,41.0,1,1,0,18.4
Status,1681733964000,42,20,5,9,1561097980,15.80,151.0,22.0,1,1,0,15.8
Status,1681733964000,42,21,5,10,1561097980,12.20,161.0,55.0,0,1,0,12.2
Status,1681733964000,42,22,5,13,1561097980,18.10,1.0,40.0,1,1,0,18.1
Status,1681733964000,42,23,5,16,1561097980,17.30,129.0,24.0,1,1,0,17.3
Status,1681733964000,42,24,5,19,1561097980,14.30,213.0,50.0,0,1,0,14.3
Status,1681733964000,42,25,5,20,1561097980,17.50,36.0,74.0,0,1,0,17.5
Status,1681733964000,42,26,5,30,1561097980,23.20,66.0,48.0,0,1,0,23.2
Status,1681733964000,42,27,5,1,1561097980,0.00,94.0,16.0,0,1,0,0.0
Status,1681733964000,42,28,5,2,1561097980,0.00,161.0,74.0,0,1,0,0.0
Status,1681733964000,42,29,5,5,1561097980,0.00,240.0,61.0,0,1,0,0.0
Status,1681733964000,42,30,5,8,1561097980,0.00,14.0,31.0,0,1,0,0.0
Status,1681733964000,42,31,5,29,1561097980,0.00,344.0,37.0,0,1,0,0.0
Status,1681733964000,42,32,4,195,1575420030,23.70,84.0,28.0,0,1,0,23.7
Status,1681733964000,42,33,4,196,1575420030,25.90,57.0,28.0,0,0,0,25.9
Status,1681733964000,42,34,6,3,1575420030,28.50,57.0,29.0,1,1,0,28.5
Status,1681733964000,42,35,6,7,1575420030,19.70,188.0,27.0,1,1,0,19.7
Status,1681733964000,42,36,6,8,1575420030,26.30,122.0,56.0,1,1,0,26.3
Status,1681733964000,42,37,6,15,1575420030,30.70,33.0,32.0,1,1,0,30.7
Status,1681733964000,42,38,6,21,1575420030,21.10,293.0,23.0,1,1,0,21.1
Status,1681733964000,42,39,6,27,1575420030,19.80,233.0,42.0,1,1,0,19.8
Status,1681733964000,42,40,6,30,1575420030,18.50,174.0,20.0,1,1,0,18.5
Status,1681733964000,42,41,6,13,1575420030,0.00,331.0,28.0,0,1,0,0.0
Fix,GPS,12.9855623700,80.2375840400,-82.52410888671875,0.0,9.935046,,1681733965000,0.2236068,,319313418592394,3.0
Raw,1681733964435,319335867000000,18,,-1365449846568191151,-0.8275737762451172,31.311621569329873,0.15976016098264026,12.424864588631573,2,12,0.0,49359,55164358396504,21,26.3,231.05361938476562,0.33820000290870667,16,0.0,0.0,1601437440,,,,0,,3,4.4,23.3,,,,,,319312848284406
Raw,1681733964435,319335867000000,18,,-1365449846568191151,-0.8275737762451172,31.311621569329873,0.15976016098264026,12.424864588631573,2,21,0.0,49359,55164363386598,11,33.0,-119.74398803710938,0.227400004863739,16,0.0,0.0,1604249980,,,,0,,3,4.4,30.0,,,,,,319312848284406
Raw,1681733964435,319335867000000,18,,-1365449846568191151,-0.8275737762451172,31.311621569329873,0.15976016098264026,12.424864588631573,2,5,0.0,81935,130782361032373,17,28.0,524.0973510742188,0.49799999594688416,16,0.0,0.0,1575420030,,,,0,,1,8.77,24.5,,,,,,319312848284406
Raw,1681733964435,319335867000000,18,,-1365449846568191151,-0.8275737762451172,31.311621569329873,0.15976016098264026,12.424864588631573,2,11,0.0,81935,130782353080152,64,18.3,201.72080993652344,1.8459999561309814,16,0.0,0.0,1575420030,,,,0,,1,8.77,14.8,,,,,,319312848284406
Raw,1681733964435,319335867000000,18,,-1365449846568191151,-0.8275737762451172,31.311621569329873,0.15976016098264026,12.424864588631573,2,12,0.0,81935,130782359795193,31,23.3,546.87548828125,0.7249999642372131,16,0.0,0.0,1575420030,,,,0,,1,8.77,19.8,,,,,,319312848284406
Raw,1681733964435,319335867000000,18,,-1365449846568191151,-0.8275737762451172,31.311621569329873,0.15976016098264026,12.424864588631573,2,13,0.0,81935,130782362617901,31,23.2,-28.810462951660156,0.7294999957084656,16,0.0,0.0,1575420030,,,,0,,1,8.77,19.7,,,,,,319312848284406
Raw,1681733964435,319335867000000,18,,-1365449846568191151,-0.8275737762451172,31.311621569329873,0.15976016098264026,12.424864588631573,2,20,0.0,81935,130782354418549,102,15.4,519.3209228515625,2.877500057220459,16,0.0,0.0,1575420030,,,,0,,1,8.77,11.9,,,,,,319312848284406
Raw,1681733964435,319335867000000,18,,-1365449846568191151,-0.8275737762451172,31.311621569329873,0.15976016098264026,12.424864588631573,2,23,0.0,81935,130782359264738,27,24.2,-337.70465087890625,0.6949999928474426,16,0.0,0.0,1575420030,,,,0,,1,8.77,20.7,,,,,,319312848284406
Raw,1681733964435,319335867000000,18,,-1365449846568191151,-0.8275737762451172,31.311621569329873,0.15976016098264026,12.424864588631573,2,25,0.0,81935,130782362508919,53,19.4,312.8332824707031,0.999500036239624,16,0.0,0.0,1575420030,,,,0,,1,8.77,15.899999999999999,,,,,,319312848284406
Raw,1681733964435,319335867000000,18,,-1365449846568191151,-0.8275737762451172,31.311621569329873,0.15976016098264026,12.424864588631573,2,29,0.0,81935,130782364151939,43,21.2,-411.3007507324219,1.6024999618530273,16,0.0,0.0,1575420030,,,,0,,1,8.77,17.7,,,,,,319312848284406
Raw,1681733964435,319335867000000,18,,-1365449846568191151,-0.8275737762451172,31.311621569329873,0.15976016098264026,12.424864588631573,2,6,0.0,16399,130768304465613,63,18.2,-266.3299560546875,1.6024999618530273,16,0.0,0.0,1561097980,,,,0,,5,4.88,12.2,,,,,,319312848284406
Raw,1681733964435,319335867000000,18,,-1365449846568191151,-0.8275737762451172,31.311621569329873,0.15976016098264026,12.424864588631573,2,9,0.0,16399,130768305193165,101,15.8,-207.1337890625,2.5840001106262207,16,0.0,0.0,1561097980,,,,0,,5,4.88,9.8,,,,,,319312848284406
Raw,1681733964435,319335867000000,18,,-1365449846568191151,-0.8275737762451172,31.311621569329873,0.15976016098264026,12.424864588631573,2,10,0.0,16399,130768313786930,317,12.2,156.7810516357422,9.62600040435791,16,0.0,0.0,1561097980,,,,0,,5,4.88,6.199999999999999,,,,,,319312848284406
Raw,1681733964435,319335867000000,18,,-1365449846568191151,-0.8275737762451172,31.311621569329873,0.15976016098264026,12.424864588631573,2,16,0.0,16399,130768304842404,685,17.3,-272.10076904296875,7.942500114440918,16,0.0,0.0,1561097980,,,,0,,5,4.88,11.3,,,,,,319312848284406
Raw,1681733964435,319335867000000,18,,-1365449846568191151,-0.8275737762451172,31.311621569329873,0.15976016098264026,12.424864588631573,2,20,0.0,16399,130768363411555,78,17.5,168.6106719970703,2.4210000038146973,16,0.0,0.0,1561097980,,,,0,,5,4.88,11.5,,,,,,319312848284406
Raw,1681733964435,319335867000000,18,,-1365449846568191151,-0.8275737762451172,31.311621569329873,0.15976016098264026,12.424864588631573,2,30,0.0,16399,130768359162176,31,23.2,-19.924097061157227,0.6050000190734863,16,0.0,0.0,1561097980,,,,0,,5,4.88,17.2,,,,,,319312848284406
Raw,1681733964435,319335867000000,18,,-1365449846568191151,-0.8275737762451172,31.311621569329873,0.15976016098264026,12.424864588631573,2,3,0.0,89103,130782348045534,17,28.5,234.1456756591797,0.05730000138282776,16,0.0,0.0,1575420030,,,,0,,6,8.8,22.5,,,,,,319312848284406
Raw,1681733964435,319335867000000,18,,-1365449846568191151,-0.8275737762451172,31.311621569329873,0.15976016098264026,12.424864588631573,2,15,0.0,89103,130782349499131,14,30.7,-3.7916948795318604,0.05130000039935112,16,0.0,0.0,1575420030,,,,0,,6,8.8,24.7,,,,,,319312848284406
Raw,1681733964435,319335867000000,18,,-1365449846568191151,-0.8275737762451172,31.311621569329873,0.15976016098264026,12.424864588631573,2,21,0.0,89103,130782346298220,40,21.1,-101.6548843383789,0.6934999823570251,16,0.0,0.0,1575420030,,,,0,,6,8.8,15.100000000000001,,,,,,319312848284406
Raw,1681733964435,319335867000000,18,,-1365449846568191151,-0.8275737762451172,31.311621569329873,0.15976016098264026,12.424864588631573,2,27,0.0,89103,130782352205530,53,19.8,288.04754638671875,0.8104999661445618,16,0.0,0.0,1575420030,,,,0,,6,8.8,13.8,,,,,,319312848284406
Status,1681733965000,42,0,1,5,1575420030,30.30,21.0,35.0,1,1,0,30.3
Status,1681733965000,42,1,1,11,1575420030,19.80,66.0,11.0,1,1,0,19.8
Status,1681733965000,42,2,1,12,1575420030,21.70,189.0,35.0,1,1,0,21.7
Status,1681733965000,42,3,1,13,1575420030,19.70,88.0,39.0,1,1,0,19.7
Status,1681733965000,42,4,1,15,1575420030,16.30,136.0,60.0,1,1,0,16.3
Status,1681733965000,42,5,1,20,1575420030,18.60,35.0,13.0,1,1,0,18.6
Status,1681733965000,42,6,1,23,1575420030,24.40,243.0,30.0,1,1,0,24.4
Status,1681733965000,42,7,1,24,1575420030,17.80,170.0,10.0,1,1,0,17.8
Status,1681733965000,42,8,1,25,1575420030,19.40,233.0,44.0,1,1,0,19.4
Status,1681733965000,42,9,1,29,1575420030,23.70,348.0,52.0,0,1,0,23.7
Status,1681733965000,42,10,1,2,1575420030,0.00,314.0,20.0,0,1,0,0.0
Status,1681733965000,42,11,1,18,1575420030,0.00,303.0,15.0,0,1,0,0.0
Status,1681733965000,42,12,3,12,1602000000,24.90,265.0,15.0,1,1,1,24.9
Status,1681733965000,42,13,3,21,1602000000,33.50,53.0,31.0,0,1,0,33.5
Status,1681733965000,42,14,3,7,1602000000,16.00,53.0,71.0,1,1,0,16.0
Status,1681733965000,42,15,3,8,1602000000,22.80,191.0,50.0,1,1,0,22.8
Status,1681733965000,42,16,3,6,1602000000,0.00,28.0,21.0,0,1,0,0.0
Status,1681733965000,42,17,5,3,1561097980,24.70,108.0,52.0,0,1,0,24.7
Status,1681733965000,42,18,5,6,1561097980,18.90,136.0,24.0,1,1,0,18.9
Status,1681733965000,42,19,5,7,1561097980,18.40,153.0,41.0,1,1,0,18.4
Status,1681733965000,42,20,5,9,1561097980,15.80,151.0,22.0,1,1,0,15.8
Status,1681733965000,42,21,5,10,1561097980,12.20,161.0,55.0,1,1,0,12.2
Status,1681733965000,42,22,5,13,1561097980,16.10,1.0,40.0,1,1,0,16.1
Status,1681733965000,42,23,5,16,1561097980,18.10,129.0,24.0,1,1,0,18.1
Status,1681733965000,42,24,5,19,1561097980,14.30,213.0,50.0,0,1,0,14.3
Status,1681733965000,42,25,5,20,1561097980,22.40,36.0,74.0,0,1,0,22.4
Status,1681733965000,42,26,5,30,1561097980,26.00,66.0,48.0,0,1,0,26.0
Status,1681733965000,42,27,5,1,1561097980,0.00,94.0,16.0,0,1,0,0.0
Status,1681733965000,42,28,5,2,1561097980,0.00,161.0,74.0,0,1,0,0.0
Status,1681733965000,42,29,5,5,1561097980,0.00,240.0,61.0,0,1,0,0.0
Status,1681733965000,42,30,5,8,1561097980,0.00,14.0,31.0,0,1,0,0.0
Status,1681733965000,42,31,5,29,1561097980,0.00,344.0,37.0,0,1,0,0.0
Status,1681733965000,42,32,4,195,1575420030,24.50,84.0,28.0,0,1,0,24.5
Status,1681733965000,42,33,4,196,1575420030,28.40,57.0,28.0,0,0,0,28.4
Status,1681733965000,42,34,6,3,1575420030,29.70,57.0,29.0,1,1,0,29.7
Status,1681733965000,42,35,6,7,1575420030,19.20,188.0,27.0,1,1,0,19.2
Status,1681733965000,42,36,6,8,1575420030,26.30,122.0,56.0,1,1,0,26.3
Status,1681733965000,42,37,6,15,1575420030,30.40,33.0,32.0,1,1,0,30.4
Status,1681733965000,42,38,6,21,1575420030,23.10,293.0,23.0,1,1,0,23.1
Status,1681733965000,42,39,6,27,1575420030,19.80,233.0,42.0,1,1,0,19.8
Status,1681733965000,42,40,6,30,1575420030,18.80,174.0,20.0,1,1,0,18.8
Status,1681733965000,42,41,6,13,1575420030,0.00,331.0,28.0,0,1,0,0.0
Fix,GPS,12.9855629000,80.2375841500,-82.49594116210938,0.0,9.935046,,1681733966000,0.15264338,,319314418592394,3.0
Raw,1681733965435,319336867000000,18,,-1365449846568191145,-0.6435918807983398,29.73925984406378,4.061807616660922,10.840725731305161,2,12,0.0,49359,55165358395827,27,24.9,232.74838256835938,0.8934999704360962,16,0.0,0.0,1601437440,,,,0,,3,3.98,21.9,,,,,,319313848284400
Raw,1681733965435,319336867000000,18,,-1365449846568191145,-0.6435918807983398,29.73925984406378,4.061807616660922,10.840725731305161,2,21,0.0,49359,55165363387007,11,33.5,-118.13998413085938,0.227400004863739,16,0.0,0.0,1604249980,,,,0,,3,3.98,30.5,,,,,,319313848284400
Raw,1681733965435,319336867000000,18,,-1365449846568191145,-0.6435918807983398,29.73925984406378,4.061807616660922,10.840725731305161,2,7,0.0,49359,55165370404078,99,16.0,170.2945556640625,3.7215001583099365,16,0.0,0.0,1604812540,,,,0,,3,3.98,13.0,,,,,,319313848284400
Raw,1681733965435,319336867000000,18,,-1365449846568191145,-0.6435918807983398,29.73925984406378,4.061807616660922,10.840725731305161,2,5,0.0,81935,130783361030613,14,30.3,525.25732421875,0.027300000190734863,16,0.0,0.0,1575420030,,,,0,,1,7.66,26.8,,,,,,319313848284400
Raw,1681733965435,319336867000000,18,,-1365449846568191145,-0.6435918807983398,29.73925984406378,4.061807616660922,10.840725731305161,2,11,0.0,81935,130783353079515,53,19.8,203.3192901611328,0.9359999895095825,16,0.0,0.0,1575420030,,,,0,,1,7.66,16.3,,,,,,319313848284400
Raw,1681733965435,319336867000000,18,,-1365449846568191145,-0.6435918807983398,29.73925984406378,4.061807616660922,10.840725731305161,2,12,0.0,81935,130783359793359,40,21.7,549.0258178710938,0.7849999666213989,16,0.0,0.0,1575420030,,,,0,,1,7.66,18.2,,,,,,319313848284400
Raw,1681733965435,319336867000000,18,,-1365449846568191145,-0.6435918807983398,29.73925984406378,4.061807616660922,10.840725731305161,2,13,0.0,81935,130783362617988,53,19.7,-27.497434616088867,0.9194999933242798,16,0.0,0.0,1575420030,,,,0,,1,7.66,16.2,,,,,,319313848284400
Raw,1681733965435,319336867000000,18,,-1365449846568191145,-0.6435918807983398,29.73925984406378,4.061807616660922,10.840725731305161,2,15,0.0,81935,130783366310829,90,16.3,-284.3653259277344,2.765500068664551,16,0.0,0.0,1575420030,,,,0,,1,7.66,12.8,,,,,,319313848284400
Raw,1681733965435,319336867000000,18,,-1365449846568191145,-0.6435918807983398,29.73925984406378,4.061807616660922,10.840725731305161,2,20,0.0,81935,130783354416984,61,18.6,522.5654907226562,1.0175000429153442,16,0.0,0.0,1575420030,,,,0,,1,7.66,15.100000000000001,,,,,,319313848284400
Raw,1681733965435,319336867000000,18,,-1365449846568191145,-0.6435918807983398,29.73925984406378,4.061807616660922,10.840725731305161,2,23,0.0,81935,130783359265826,27,24.4,-336.1442565917969,0.6949999928474426,16,0.0,0.0,1575420030,,,,0,,1,7.66,20.9,,,,,,319313848284400
Raw,1681733965435,319336867000000,18,,-1365449846568191145,-0.6435918807983398,29.73925984406378,4.061807616660922,10.840725731305161,2,24,0.0,81935,130783352368815,73,17.8,-170.3794403076172,1.844499945640564,16,0.0,0.0,1575420030,,,,0,,1,7.66,14.3,,,,,,319313848284400
Raw,1681733965435,319336867000000,18,,-1365449846568191145,-0.6435918807983398,29.73925984406378,4.061807616660922,10.840725731305161,2,29,0.0,81935,130783364153359,31,23.7,-409.5690612792969,0.67249995470047,16,0.0,0.0,1575420030,,,,0,,1,7.66,20.2,,,,,,319313848284400
